time(s),mass(kg),thrust(N),lat(deg),lon(deg),altitude(m),pos_ECI_X(m),pos_ECI_Y(m),pos_ECI_Z(m),vel_ECI_X(m/s),vel_ECI_Y(m/s),vel_ECI_Z(m/s),vel_NED_X(m/s),vel_NED_Y(m/s),vel_NED_Z(m/s),acc_ECI_X(m/s2),acc_ECI_Y(m/s2),acc_ECI_Z(m/s2),acc_Body_X(m/s2),acc_Body_Y(m/s2),acc_Body_Z(m/s2),Isp(s),Mach number,attitude_azimuth(deg),attitude_elevation(deg),attitude_roll(deg),angle of attack alpha(deg),angle of attack beta(deg),all angle of attack gamma(deg),dynamic pressure(Pa),aeroforce_Body_X[N],aeroforce_Body_Y[N],aeroforce_Body_Z[N],thrust_Body_X[N],thrust_Body_Y[N],thrust_Body_Z[N],gimbal_angle_pitch(deg),gimbal_angle_yaw(deg),wind speed(m/s),wind direction(deg),downrange(m),IIP_lat(deg),IIP_lon(deg),dcmBODY2ECI_11,dcmBODY2ECI_12,dcmBODY2ECI_13,dcmBODY2ECI_21,dcmBODY2ECI_22,dcmBODY2ECI_23,dcmBODY2ECI_31,dcmBODY2ECI_32,dcmBODY2ECI_33,inertial velocity(m/s),kinematic_energy_NED(J),loss_gravity(m/s2),loss_aerodynamics(m/s2),loss_thrust(m/s2),is_powered(1=powered 0=free),is_separated(1=already 0=still)
1,993.0473894569686,11028.3026159847,42.506125624537866,143.45649274615525,15.540960900485516,-3783605.6394511107,2803742.149316108,4287226.888755566,-206.56074792224086,-276.54309918566065,0.18623151158407972,-0.7506771530323308,1.7681722717722503,-1.0946698895528089,-2.115549382667222,-0.6397133705228537,0.21054748283304203,11.105349424202679,-0.0000003278797642281006,-0.001768095751555343,220,0.006498283204275788,113,80,0,50.32264236563568,0.0049525070583779935,0,2.989589601829634,-0.16436127278123724,-0.0003256001454292272,-1.7558028703914397,11028.3026159847,0,0,0,0,0,270,0.9551567367385206,0,0,-0.7153080678055969,-0.26707870852474236,-0.6457579512363587,0.33111293093301125,0.6842293582130101,-0.6497648900397461,0.6153849162119386,-0.678600875929414,-0.401001566189781,345.171642768611,2427.132714331766,4.863224223486189,0.00016551201335025456,3.9995043803369303,1,0
2,986.0947789139373,11029.091160047627,42.50611547326716,143.45652505894614,17.215102905407548,-3783813.266420795,2803465.291324765,4287227.188620999,-208.70173806643442,-277.1678695532461,0.42194896854870706,-1.50506988820212,3.544491657007546,-2.2666343798230986,-2.168163723983798,-0.6102729506498861,0.26112097871195505,11.183935015818957,-0.000002586262374926207,-0.007275150514896023,220,0.013133447117744423,113,80,0,49.51833828864543,0.009498560593427404,0,12.209152850655114,-0.6712332357880273,-0.002550299824981968,-7.173987938551985,11029.091160047627,0,0,0,0,0,270,3.848893376317958,0,0,-0.7153324853533288,-0.2671288918788094,-0.645710144354128,0.33106043044429667,0.6842096584790149,-0.649812384183363,0.6153847794610023,-0.6786009861233838,-0.40100158957303944,346.9562240767096,9844.326119715723,4.982536318783868,0.0006806984989082982,4.026903827972645,1,0
3,979.1421683709059,11030.449948259964,42.506098520834215,143.45657901168633,20.10055047366768,-3784023.0595837357,2803187.8241880704,4287227.749970956,-210.8926883701436,-277.7607955193234,0.7096265222627193,-2.261354198966923,5.324658089594013,-3.5175658950255464,-2.2191234725337363,-0.5777753714079776,0.3141378144060738,11.26384880739155,-0.000008697768218546287,-0.01682469227980432,220,0.019900393353648224,113,80,0,48.69813392609256,0.013819836782659741,0,28.022234187487904,-1.5406027885602331,-0.008516351633925149,-16.47376568102047,11030.449948259964,0,0,0,0,0,270,8.669132072110296,0,0,-0.7153570827620738,-0.26717926746414167,-0.6456620502859527,0.3310077014550862,0.6841898062050271,-0.6498601470028363,0.6153845510894438,-0.6786011701452129,-0.40100162862261735,348.7510417264943,22441.43737904953,5.103193763277751,0.001573420937557499,4.054109995430554,1,0
4,972.1895578278745,11032.416081588033,42.5060747590272,143.45665462311194,24.27713878452778,-3784235.0675167628,2802909.781580104,4287228.626073064,-213.1307853102224,-278.3181692477022,1.051910113757343,-3.0175445261013425,7.103998339104848,-4.84921490843295,-2.2682685857570206,-0.5420103833642398,0.36974910580243403,11.345138026000939,-0.000020562469179807863,-0.030717517528244365,220,0.026793649576825396,113,80,0,47.85992594576628,0.017904008769202024,0,50.772438455195314,-2.7913605939744266,-0.01999061782100924,-29.863249783354274,11032.416081588033,0,0,0,0,0,270,15.425760071309716,0,0,-0.7153818601606198,-0.26722983539286627,-0.6456136687129798,0.3309547437433024,0.6841698012031059,-0.6499081786802715,0.6153842309865736,-0.6786014280839706,-0.4010016833573883,350.5521951082779,40388.27968179121,5.225416771547954,0.002871210219754937,4.081080573706825,1,0
5,965.2369472848432,11035.027227790717,42.50604419830183,143.4567518526139,29.826496982946992,-3784449.3358414867,2802631.2010299996,4287229.872934848,-215.4129327644568,-278.83598874221,1.4516338510807871,-3.7714801943232406,8.877434488336057,-6.263419378914518,-2.3154448416764914,-0.5027699234011904,0.42810586774144976,11.427853202058433,-0.000040008727212104134,-0.04924921315648412,220,0.0338073863376749,113,80,0,47.001454890406976,0.021738982023957666,0,80.77957367881568,-4.441089016515949,-0.0386179017187344,-47.53716016334532,11035.027227790717,0,0,0,0,0,270,24.11437167361333,0,0,-0.7154068171735989,-0.267280595245873,-0.6455650000941444,0.3309015577081992,0.6841496436935335,-0.6499564786509159,0.6153838192931532,-0.6786017598260581,-0.40100175375320835,352.35542774429894,63832.72560710196,5.3494325229582635,0.004601035040161363,4.107771447583441,1,0
6,958.2843367418118,11038.321612552052,42.50600686934396,143.45687059537812,36.83213665988296,-3784665.906946363,2802352.124212996,4287231.549491406,-217.73576176864162,-279.30996381426775,1.9118185604890694,-4.520829238452691,10.63949456813129,-7.7621067768508345,-2.3605054759357342,-0.4598493983982608,0.4893582776027303,11.512048462729162,-0.00006873316023803255,-0.07270797054038347,220,0.040935548017518704,113,80,0,46.12042924921695,0.025310119828115343,0,118.3364640335671,-6.505886906043827,-0.06586591087205432,-69.67490932513553,11038.321612552052,0,0,0,0,0,270,34.72559607854157,0,0,-0.7154319528801668,-0.2673315460298145,-0.6455160457303752,0.33084814442124855,0.6841293343387009,-0.6500050455421885,0.6153833164224453,-0.6786021650382462,-0.4010018397393176,354.15614196157384,92899.4583380129,5.475454935116676,0.006789098659552329,4.134136639358776,1,0
7,951.3317261987804,11042.338007187876,42.50596282458799,143.45701067761672,45.37954307068139,-3784884.8197176633,2802072.5972387856,4287233.717791341,-220.09563817688138,-279.73551642007817,2.4356706578236755,-5.263093120620365,12.384317419128365,-9.347297555204298,-2.403312560461382,-0.41304879020852026,0.5536550889473997,11.597781792711903,-0.00010828852819777524,-0.10137274278440556,220,0.04817198235167595,113,80,0,45.214529271624514,0.02861545310672604,0,163.70648799407635,-9.00023425047558,-0.10301831245761342,-96.43910638259226,11042.338007187876,0,0,0,0,0,270,47.243156241982916,0,0,-0.7154572657736185,-0.2673826861347902,-0.6454668078275457,0.3307945056761948,0.684108874276278,-0.6500538771139555,0.6153827230806694,-0.6786026431511949,-0.4010019411948429,355.9494087406943,127689.37997191532,5.603682179156973,0.009460668663324895,4.160128253711967,1,0
8,944.379115655749,11047.115712982326,42.50591213971103,143.45717185188687,55.55626987013966,-3785106.109278377,2801792.6709368858,4287236.443183067,-222.4886857438884,-280.10780015894045,3.02657416983549,-5.995617170709317,14.105682128942885,-11.02110472594432,-2.443737892168188,-0.36217328813576266,0.6211432521562577,11.685115228804833,-0.00016001922424635495,-0.1355121084213513,220,0.05551063278452023,113,80,0,44.28146210537692,0.03164943857637646,0,217.1223904438592,-11.936926868094949,-0.15111881348098755,-127.97480511160224,11047.115712982326,0,0,0,0,0,270,61.645920440441095,0,0,-0.715482753721743,-0.26743401329286737,-0.6454172895583308,0.33074064403819253,0.6840882651518263,-0.6501029701999265,0.6153820402871321,-0.6786031933432345,-0.4010020579453569,357.7300031380219,168280.06815923788,5.734286867990045,0.01263997336472895,4.1856964237004615,1,0
9,937.4265051127177,11052.694528129128,42.505854914514146,143.45735379436854,67.45200814493,-3785329.8068448026,2801512.4010288464,4287239.794433595,-224.91098195018182,-280.4218912061161,3.6879739837092105,-6.7157061398708855,15.79727802942652,-12.785687138318972,-2.4816611886199498,-0.3070316328636018,0.6919688440794127,11.774114690519902,-0.00022503938010842717,-0.17538688604315755,220,0.06294627459376793,113,80,0,43.3195032824415,0.03440874906146581,0,278.79113173901726,-15.327342998752416,-0.21095787960923465,-164.41231562604005,11052.694528129128,0,0,0,0,0,270,77.9041839330064,0,0,-0.7155084139438028,-0.2674855245541723,-0.6453674950984153,0.3306865628724207,0.6840675091379682,-0.6501523206737021,0.6153812693861005,-0.678603814530802,-0.4010021897608497,359.49268145751495,214730.8982434177,5.867339705599915,0.01635044765126353,4.210789272910778,1,0
10,930.4738945696863,11059.1147097352,42.505791273727844,143.45755610236733,81.15865683183074,-3785555.93959959,2801231.8482897044,4287243.843842032,-227.35834146369965,-280.67256450560336,4.423515570308135,-7.420493482578355,17.452395999229985,-14.64331364037211,-2.516971983857614,-0.2474376754473342,0.7662762073672473,11.864850292901059,-0.00030420600999025993,-0.2212475527143507,220,0.07047393300385126,113,80,0,42.326613574542556,0.03689224665709841,0,348.8903573679307,-19.181249213269652,-0.28305575086688745,-205.86507203813298,11059.1147097352,0,0,0,0,0,270,95.98213589882721,0,0,-0.7155342429894824,-0.2675372162649579,-0.6453174296597491,0.3306322663703878,0.6840466089519869,-0.6502019234176936,0.615380412057655,-0.678604505359701,-0.4010023363538749,361.2318803611845,267081.59092847235,6.002932099464457,0.020614494748549986,4.235352881219016,1,0
11,923.5212840266549,11066.416952195845,42.50572136865737,143.45777828913393,96.77044076658785,-3785784.530411233,2800951.0788702425,4287248.667454076,-229.82634303143456,-280.8543144704702,5.237034066885807,-8.106955548881938,19.063961133236084,-16.596362397011767,-2.5495691497170743,-0.18320986121289362,0.8442082615810751,11.957396368080675,-0.00039810244319582466,-0.2733350137587287,220,0.0780891191395295,113,80,0,41.30062365335048,0.03910086033586231,0,427.57029538522596,-23.50690473032027,-0.36765607951546947,-252.43070287590595,11066.416952195845,0,0,0,0,0,270,115.83627500503508,0,0,-0.7155602366951188,-0.2675890840216495,-0.6452670995589967,0.3305777596043953,0.6840255678918856,-0.6502517722583478,0.6153794703398581,-0.6786052641872432,-0.4010024973757613,362.9417590105857,325354.97245387937,6.141146501676533,0.025453560342245243,4.25933123127742,1,0
12,916.5686734836236,11074.64235203698,42.505645378412474,143.45801977999722,114.38401349075139,-3786015.5976339593,2800670.1645445004,4287254.345232174,-232.31038113109807,-280.9614009688845,6.1325276243528215,-8.771940681959052,20.62460046143679,-18.647313181425808,-2.579359220280561,-0.11416969064457216,0.9259073888289162,12.051831322077213,-0.0005070322523774706,-0.33188304043910843,220,0.08578814622844402,113,80,0,40.23939169198986,0.04103748427935889,0,514.9581708397304,-28.31130411228236,-0.4647298789743744,-304.1935981269857,11074.64235203698,0,0,0,0,0,270,137.41516999338756,0,0,-0.715586390151128,-0.26764112263663226,-0.6452165122687736,0.33052304856827663,0.6840043898634052,-0.6503018599179334,0.6153784466453225,-0.6786060890689044,-0.4010026724137832,364.6162776272307,389561.5649588572,6.2820318678198435,0.030888361048473256,4.2826661673301825,1,0
13,909.6160629405922,11083.832366195104,42.50556351108147,143.45827990882051,134.09856044035405,-3786249.1549270772,2800389.182938755,4287260.961221409,-234.80567212523326,-280.98786202463725,7.114165120868187,-9.412161661952432,22.126656846898282,-20.79875053618317,-2.606254529748898,-0.040139626207006174,1.011516172828765,12.148237450410532,-0.0006305852464079109,-0.39712112948305434,220,0.09356832156005117,113,80,0,39.140809133273976,0.042677297216177405,0,611.1630735507619,-33.60044488521756,-0.5735904691848869,-361.22775831089695,11083.832366195104,0,0,0,0,0,270,160.65887443694987,0,0,-0.7156126976717985,-0.2676933261073854,-0.6451656764649341,0.3304681402144764,0.683983079405163,-0.6503521779702252,0.6153773437770327,-0.6786069777455839,-0.40100286098845767,366.24922336125996,459704.38296234526,6.425600375005039,0.0369391507627895,4.305297359354861,1,0
14,902.6634523975608,11094.028764648197,42.505476004843,143.45855791453087,156.01590530574322,-3786485.2110836413,2800108.2177599864,4287268.60371244,-237.30727006536782,-280.9274930959004,8.186263769081053,-10.024229019915683,23.56218175203785,-23.05336696829153,-2.6301702093629853,0.03905861196775362,1.1011795173329757,12.246700656756161,-0.0007687116551533535,-0.46927839886821143,220,0.10142814303026823,113,80,0,38.00280752275723,0.044051151783861264,0,716.2821751973546,-39.37966934120322,-0.6938879165390442,-423.6004596579791,11094.028764648197,0,0,0,0,0,270,185.49957930139698,0,0,-0.7156391527660624,-0.26774568758590794,-0.6451146020727028,0.33041304249063375,0.6839616417130242,-0.6504027167972988,0.6153761649433255,-0.6786079276315404,-0.4010030625509872,367.83421770890425,535784.6050999843,6.5718238900830155,0.043626081499818156,4.32716227180481,1,0
15,895.7108418545295,11105.273577010286,42.50538312892699,143.45885293761611,180.24061961472034,-3786723.769868621,2799827.3590347604,4287277.365394281,-239.810062986788,-280.7738640509974,9.353308354406948,-10.604627918525274,24.922946707048094,-25.413966184663572,-2.6510209017794244,0.12360767027113884,1.1950458993104913,12.3473100703332,-0.0009209727557859537,-0.5485885672251372,220,0.10936749827528719,113,80,0,36.82336572924741,0.04517259440673691,0,830.4082729877478,-45.65407927322368,-0.8249252824089389,-491.3767273809963,11105.273577010286,0,0,0,0,0,270,211.86011199417274,0,0,-0.7156657481094078,-0.26779819934634386,-0.645063300312347,0.3303577643775477,0.6839400826635786,-0.6504534655466183,0.6153749137708412,-0.6786089358039672,-0.4010032764810492,369.36474306710414,617808.0811275522,6.720630318451789,0.05096966246238455,4.34819613763506,1,0
16,888.7582313114981,11117.609032679637,42.5052851847728,143.4591640167164,206.88013557251543,-3786964.829851783,2799546.7033346575,4287287.343525467,-242.30877235371932,-280.5203123404619,10.619952336664094,-11.14971968250384,26.200437519016567,-27.883466378847544,-2.6687164521818207,0.2136983037955611,1.2932695812371566,12.450157558594505,-0.0010866370877637976,-0.6352960546278923,220,0.1173878649667477,113,80,0,35.60051709675401,0.046050719203876024,0,953.6386182757216,-52.42902135370424,-0.9657576561973816,-564.6245978702577,11117.609032679637,0,0,0,0,0,270,239.65446377467563,0,0,-0.7156924755146491,-0.2678508527556218,-0.6450117837449169,0.330302315924725,0.6839184088385843,-0.65050441208839,0.6153735943201304,-0.6786099989904254,-0.40100350208413194,370.83415455266504,705792.6282209291,6.871899909478929,0.05899132014376648,4.368331938362253,1,0
17,881.8056207684667,11131.077494122579,42.505182507142955,143.45949008507876,236.04486220236868,-3787208.3842386086,2799266.3540143324,4287298.6401038235,-244.79794636929427,-280.1599324423318,11.991022004150643,-11.655739242647451,27.385841837491665,-30.464903575831194,-2.68315678050286,0.3095338290581049,1.3960132229456361,12.555337132601668,-0.0012647829616172501,-0.7296632337331594,220,0.1254925110921948,113,80,0,34.33235618839496,0.04669572816147422,0,1086.0849718220732,-59.7106399513838,-1.115292724606992,-643.4211407739941,11131.077494122579,0,0,0,0,0,270,268.7871387911254,0,0,-0.7157193259023147,-0.2679036382420551,-0.6449600663193079,0.3302467082879367,0.6838966275497504,-0.65055554297159,0.6153722111006628,-0.6786111135567616,-0.4010037385889728,372.2356873023056,799776.0674885885,7.025461592837223,0.06771406140431244,4.387500390965725,1,0
18,874.8530102254354,11145.721382893924,42.505075465294155,143.4598299668219,267.84830489661545,-3787454.420690534,2798986.42146119,4287311.362043259,-247.27198028901165,-279.6855963591074,13.471503394919651,-12.118807487096127,28.470077743538166,-33.16142573595972,-2.694225169659741,0.4113360230899419,1.503451223296243,12.66294414322439,-0.001454333602274538,-0.8319799357924569,220,0.13368678075471951,113,80,0,33.017101597300694,0.04711867025721198,0,1227.8864043303622,-67.50658087752342,-1.272328129823935,-727.8601512751957,11145.721382893924,0,0,0,0,0,270,299.1528217353,0,0,-0.7157462892694625,-0.2679565452622371,-0.6449081634218332,0.3301909537687988,0.6838747468648305,-0.6506068433776386,0.6153707690866101,-0.6786122754944025,-0.40100398514486496,373.562506751572,899826.1174127721,7.181082771337515,0.07716334068522902,4.405629942466439,1,0
19,867.900399682404,11161.583063148608,42.50496446273917,143.46018237768305,302.4071124624461,-3787702.921406272,2798707.023080061,4287325.6211862,-249.72559292982248,-279.0904384226838,15.066241579521273,-12.535217168865739,29.444466862671455,-35.97615962281874,-2.701769967024024,0.5193610719507422,1.6157786505416132,12.773072938022473,-0.0016541205839883943,-0.9425892081435538,220,0.14197947329161165,113,80,0,31.653875609418723,0.047331222195987004,0,1379.2450140992403,-75.82795506640417,-1.4356119159661174,-818.0735504841116,11161.583063148608,0,0,0,0,0,270,330.6364508173808,0,0,-0.7157733546965158,-0.2680095623080193,-0.6448560918669836,0.3301350658073733,0.6838527756028472,-0.6506582971304086,0.6153692737136434,-0.6786134804229471,-0.40100424082221026,374.8083993435176,1006066.8277171275,7.338378516633357,0.08736942060880759,4.422646813224198,1,0
20,860.9477891393726,11178.704717986715,42.50484993720929,143.46054592512024,339.8411281686276,-3787953.8631618414,2798428.283313266,4287341.534335173,-252.1530451584478,-278.36707342996846,16.780419813541894,-12.9009689793153,30.299641113886732,-38.91241375747822,-2.7056130718528015,0.6338922265288183,1.7332071686108694,12.885817992563718,-0.0018628783250376202,-1.0618754276224678,220,0.15038105583656422,113,80,0,30.241410517158698,0.04734546433429163,0,1540.4053271217379,-84.6882060366341,-1.6038409753770404,-914.2193017529887,11178.704717986715,0,0,0,0,0,270,363.1134275846919,0,0,-0.7158005103486511,-0.2680626769077137,-0.6448038698966384,0.3300790589815371,0.6838307233337422,-0.6507098866981459,0.6153677308784347,-0.6786147235905817,-0.40100450461260995,375.96671161389065,1118663.5545272296,7.496965431651149,0.09836625066578171,4.438475050656855,1,0
21,853.9951785963412,11197.128293248745,42.50473236407919,143.46091909738905,380.27360947523266,-3788207.2167030824,2798150.3343092054,4287359.223681958,-254.54809717354823,-277.50755761564665,18.619581604723482,-13.211747513996249,31.025486012212724,-41.97368483331908,-2.705542549368647,0.755246351718232,1.855968742838261,13.001273054993494,-0.002079269609211565,-1.190274808894753,220,0.15890394502209979,113,80,0,28.778140715855727,0.047173611348927565,0,1711.6666434822948,-94.10378866977686,-1.7756862212678666,-1016.4889480008017,11197.128293248745,0,0,0,0,0,270,396.4483216972309,0,0,-0.7158277433837652,-0.26811587552868676,-0.6447515173239937,0.33002294912200636,0.6838086004539841,-0.6507615930569175,0.6153661469848012,-0.6786159998369101,-0.4010047754209802,377.03032653569204,1237832.3952021098,7.6564428639403195,0.11019241212163446,4.453036506601594,1,0
22,847.0425680533099,11216.895398361004,42.50461225853043,143.46130025663498,423.83137811068445,-3788462.946369291,2797873.3163515646,4287378.817086417,-256.9041653068976,-276.5035554480949,20.589524262355855,-13.46301781302976,31.61136807044952,-45.16360547909189,-2.7012987853000405,0.8837860737243544,1.9843224458862618,13.11952941862795,-0.002301922198729045,-1.3282949635136996,220,0.16756325252802026,113,80,0,27.26256511417808,0.04682781536320057,0,1893.4073879737145,-104.09550795544007,-1.9498260906703693,-1125.1223770269214,11216.895398361004,0,0,0,0,0,270,430.4945182717069,0,0,-0.7158550398945213,-0.2681691435159015,-0.6446990556248405,0.32996675338528414,0.6837864182345537,-0.6508133956045582,0.615364528972859,-0.6786173035694771,-0.4010050520605738,377.99192430106444,1363858.263944075,7.816346909956401,0.12289288860024407,4.4662508642669545,1,0
23,840.0899575102785,11238.047190674908,42.50449017768698,143.46168763207433,470.6449583917856,-3788721.0097159934,2797597.3782789945,4287400.448345131,-259.2142530361926,-275.3462820242322,22.696329470900704,-13.64998830512015,32.04604755021267,-48.48594905311922,-2.692564048524207,1.019928970435469,2.118559599780615,13.24067462894104,-0.002529449804428374,-1.476529669416045,220,0.17637699490378048,113,80,0,25.693241933162586,0.046320002113548885,0,2086.1012120143387,-114.68940424040768,-2.1249653787269382,-1240.4177472423921,11238.047190674908,0,0,0,0,0,270,465.0933792499729,0,0,-0.7158823848511787,-0.2682224650312695,-0.6446465080277239,0.3299104903257054,0.6837641888683432,-0.6508652720757724,0.6153628843477981,-0.6786186287405955,-0.40100533324806575,378.84393537858165,1497106.9233758163,7.976148451448467,0.1365203847696328,4.47803568617122,1,0
24,833.1373469672471,11260.624250493365,42.50436672311739,143.46207931200993,520.8487204276025,-3788981.3570616604,2797322.6779679325,4287424.257493406,-261.4708675711722,-274.0264341767351,24.94639953794883,-13.767566232468312,32.31757357982044,-51.94463462896417,-2.678950704368818,1.1641579543644847,2.2590095716071072,13.364791015759334,-0.0027604674746752877,-1.6356755478975744,220,0.18536632319987043,113,80,0,24.06878150419398,0.045661733167480956,0,2290.334593880015,-125.9177208519303,-2.2998485482392774,-1362.7423864745806,11260.624250493365,0,0,0,0,0,270,500.0737831297362,0,0,-0.7159097620345811,-0.26827582298261543,-0.6445938996194344,0.3298541799797269,0.6837419255256185,-0.6509171984426448,0.6153612212135984,-0.6786199688201932,-0.40100561759779496,379.5784820902589,1638038.2149166781,8.135251404670509,0.15113680992730777,4.488306475659216,1,0
25,826.1847364242158,11284.666446399337,42.504242543774744,143.4624732344538,574.5810284111649,-3789243.930943044,2797049.382890547,4287450.391146635,-263.66592019061676,-272.5341088612097,27.34650001918071,-13.810304616661668,32.41315940805035,-55.543732186558586,-2.6599877980104774,1.3170330960310208,2.406046360034046,13.491954015346154,-0.0029936008883986176,-1.8065510451605116,220,0.1945557809182196,113,80,0,22.38783681563551,0.044864094845737175,0,2506.826306267649,-137.81997438293146,-2.4732673609411617,-1492.5448990828288,11284.666446399337,0,0,0,0,0,270,535.251068255393,0,0,-0.7159371539573759,-0.26832919894020935,-0.6445412574688435,0.3297978439648645,0.683719642419117,-0.6509691487976996,0.6153595483126424,-0.6786213167639079,-0.40100590361499716,380.1873078181825,1787220.8333329684,8.292991175566353,0.16681496075493452,4.496976753263297,1,0
26,819.2321258811844,11310.212790513559,42.50411833960599,143.46286717618568,631.98439421691,-3789508.6654569716,2796777.6707489816,4287479.002900128,-265.79059603214426,-270.85873786762727,29.903840132469547,-13.772298175968476,32.319052677299005,-59.28746802866364,-2.6351282527377213,1.4791851750206089,2.560080578140435,13.622230234874628,-0.003224550624525868,-1.990084375092139,220,0.20397360080097818,113,80,0,20.649091594723906,0.04389760849107866,0,2736.4492662182615,-150.44415595426824,-2.6416554631404994,-1630.3410532896598,11310.212790513559,0,0,0,0,0,270,570.4262001104624,0,0,-0.715964541770491,-0.2683825730410445,-0.6444886107723231,0.329741505593936,0.6836973548812131,-0.6510210952166425,0.6153578750743464,-0.6786226649739169,-0.4010061896874961,380.66170870345604,1945349.1092306944,8.448633296736132,0.18364044963745427,4.503958149245702,1,0
27,812.279515338153,11337.301283322036,42.50399486561664,143.4632587397776,693.2056365301833,-3789775.485478723,2796507.730226672,4287510.253770039,-267.83524884623733,-268.988888344061,32.626044751292866,-13.647226541849797,32.020312586445904,-63.180230448773486,-2.603701981884768,1.6513530455402474,2.7215903632479996,13.75567519495699,-0.003454133040146523,-2.187380453496787,220,0.21365205408485424,113,80,0,18.851245759153034,0.04280979552993755,0,2980.2554833106747,-163.8481028133165,-2.805721511762506,-1776.7643346265181,11337.301283322036,0,0,0,0,0,270,605.3844468518458,0,0,-0.7159919051540222,-0.26843592387321513,-0.6444359910249015,0.32968519001185453,0.6836750794538567,-0.6510730075963906,0.6153562116699245,-0.6786240052548216,-0.4010064740763458,380.9923901775637,2113262.4238756644,8.601372174923265,0.20171394171513277,4.509160513734214,1,0
28,805.3269047951217,11365.968747755447,42.50387293621442,143.4636453380826,758.3960457965732,-3790044.3057433506,2796239.7618979695,4287544.312661151,-269.78920766542484,-266.9122057823646,35.52129656372466,-13.42816692467471,31.500649389737426,-67.2265756872165,-2.564859259817868,1.8344445417126591,2.891150386033729,13.892330667931574,-0.003681572836510938,-2.3998086707853377,220,0.22362786759807043,113,80,0,16.992998106698426,0.04161779200628705,0,3239.5050208736066,-178.10109055976602,-2.964869657203694,-1932.6304889440526,11365.968747755447,0,0,0,0,0,270,639.8942180285377,0,0,-0.7160192221911732,-0.26848922833272804,-0.6443834322218748,0.3296289243623815,0.6836528339924056,-0.6511248534634901,0.615354569070911,-0.6786253287665062,-0.40100675490583043,381.16939105588364,2291968.0448302794,8.750329911283385,0.22115378177396872,4.512492045909064,1,0
29,798.3742942520903,11396.250652223454,42.50375343114069,143.46402417647013,827.7115552835166,-3790315.029724865,2795973.979219343,4287581.356968928,-271.64058891456887,-264.6152464612408,38.598402428632866,-13.107509920541059,30.74217824249222,-71.43123422959354,-2.5176149927096363,2.029487547561035,3.0694014833081376,14.032221500631813,-0.003905517152356097,-2.628930319926763,220,0.23394272951020703,113,80,0,15.073026096126796,0.040329732881937745,0,3515.7002228819374,-193.28571486752313,-3.118064500200636,-2098.8703888094506,11396.250652223454,0,0,0,0,0,270,673.7053050326828,0,0,-0.7160464692155808,-0.26854246146860483,-0.6443309710950444,0.3295727379729608,0.6836306377912393,-0.6511765977506789,0.6153529591290728,-0.6786266259597586,-0.401007030149806,381.181944582426,2482668.441537042,8.894555065304198,0.24209912100012113,4.513859443774432,1,0
30,791.4216837090589,11428.173953434885,42.50363698237076,143.46439324964493,901.2967967586592,-3790587.607732418,2795710.5495602987,4287621.536163016,-273.5563673641573,-262.2659032292298,41.75428370463993,-12.78466294725957,29.979114882268355,-75.75011014265041,-2.727311153156177,1.9678421470160208,3.0907573170248277,14.17493389926085,-0.004131412129598999,-2.462444302923813,220,0.24483262567167138,113,80,0,13.279665852713187,0.03895753936040785,0,3816.5155348830563,-209.82390041724878,-3.2696891437037054,-1948.8318162597434,11428.173953434885,0,0,0,0,0,270,706.6380438011281,0,0,-0.7160736292512307,-0.26859560539220056,-0.6442786340202259,0.32951665189326984,0.6836085047102995,-0.6512282153076587,0.6153513903584039,-0.6786278899748712,-0.4010072983528273,381.26094781632844,2690942.197825555,9.020221228858711,0.26512275912620037,4.513176881666265,1,0
31,784.4690731660276,11461.734786969753,42.50352296020612,143.4647545692527,979.2331247152761,-3790862.22478178,2795449.403061881,4287664.853623543,-275.71696793946717,-260.04742174103416,44.875785089631194,-12.56768668249368,29.465995398649426,-80.13363775298652,-2.930158289763451,1.9156490302832108,3.1190271106777026,14.320115455177085,-0.004402942008828958,-2.309312020827578,220,0.2564507872143268,113,80,0,11.78952655569871,0.037529592475766094,0,4147.979582556107,-228.04708821647768,-3.453971836869971,-1811.5838606297793,11461.734786969753,0,0,0,0,0,270,738.8722166613252,0,0,-0.7161007193324942,-0.26864867811766513,-0.6442263946138156,0.32946064501556616,0.683586420911358,-0.6512797313992865,0.6153498542759326,-0.678629127647223,-0.40100756096532336,381.65212438987317,2921202.6135703055,9.117870936044298,0.2907024585381112,4.510394780447127,1,0
32,777.5164626229962,11496.920675111636,42.50341049154796,143.46511092122378,1061.5886522950605,-3791139.110493655,2795190.4236184866,4287711.283845329,-278.0855324047059,-257.923714045504,47.98472172949869,-12.434975253327444,29.151861286944445,-84.59053167776756,-3.1151220154783408,1.8843436184297753,3.161240923393845,14.467954501443035,-0.004640809988722516,-2.186909395229335,220,0.2686918982534541,113,80,0,10.539245469847039,0.03607428880301445,0,4508.138697939701,-247.84786975919636,-3.608306166136725,-1700.3580570557056,11496.920675111636,0,0,0,0,0,270,770.6567259408107,0,0,-0.7161277630426048,-0.2687017045717261,-0.6441742163109632,0.3294046881001603,0.6835643672085661,-0.651331180998107,0.6153483391195844,-0.6786303484541503,-0.4010078199982733,382.30712669173863,3172274.039025743,9.194994757196936,0.3187686456477943,4.505472865578339,1,0
33,770.5638520799648,11533.720218958093,42.50329890737215,143.46546444104234,1148.440814605914,-3791418.4559328984,2794933.5330740577,4287760.82433307,-280.6323989764561,-255.86569584893283,51.098685786926794,-12.36912815239014,28.995665166961306,-89.12784471191961,-3.2897298362581733,1.8664525123568891,3.2128965845242847,14.618604852402196,-0.004879325875152496,-2.0837148580421556,220,0.2814840303027091,113,80,0,9.478192948821949,0.034613923793885074,0,4895.637914257862,-269.15175185619273,-3.7598321419097283,-1605.6353476492213,11533.720218958093,0,0,0,0,0,270,802.1824107111813,0,0,-0.7161547784524922,-0.26875470386055594,-0.6441220710800761,0.32934875872921954,0.6835423288936155,-0.6513825909050797,0.6153468358764708,-0.6786315596577549,-0.40100807699259466,383.18777819326453,3443463.622267521,9.256960609412785,0.34929195176970446,4.498368008939765,1,0
34,763.6112415369334,11572.121871941936,42.50318769098986,143.46581677852,1239.87395194266,-3791700.423350873,2794678.6815823,4287813.489731289,-283.32627287350044,-253.84246526036193,54.23643877702507,-12.351712274144582,28.95393042003108,-93.7532334778023,-3.4571264667462867,1.858956094084065,3.2721915350815447,14.772211752152526,-0.005116431082268669,-1.9950135833650546,220,0.29477289099718834,113,80,0,8.559907150481903,0.033165954409694554,0,5309.316421324014,-291.89491563426554,-3.9069642909688884,-1523.4147992764345,11572.121871941936,0,0,0,0,0,270,833.596648779315,0,0,-0.7161817795177752,-0.2688076907440158,-0.6440699372611814,0.3292928395790955,0.6835202946013627,-0.6514339818201094,0.6153453375858867,-0.6786327668665403,-0.40100833313832157,384.25429777825684,3734274.1836481453,9.30797681788833,0.38225591735234754,4.489035705077776,1,0
35,756.6586309939021,11612.112794346367,42.50307642942997,143.4661692526386,1335.9769911561161,-3791985.155308999,2794425.838522734,4287869.306276036,-286.15983049388694,-251.84727486166523,57.40189662645801,-12.378584895840099,29.0168486676616,-98.46797504778961,-3.619611026689901,1.859635683109409,3.3377978336346246,14.928871597308092,-0.00535111716352521,-1.917347468048459,220,0.30853370937494323,113,80,0,7.76424985337896,0.03174415555679871,0,5748.735645411929,-316.0532492434782,-4.048968987244573,-1450.7775103131726,11612.112794346367,0,0,0,0,0,270,865.0171844032444,0,0,-0.7162087773908734,-0.26886067702062444,-0.6440177975337964,0.32923691679620415,0.6834982552432971,-0.6514853702869299,0.6153438386843568,-0.6786339745631516,-0.4010085893865864,385.4989963409138,4044775.0757205538,9.350195631275591,0.41769595468478216,4.477431521799341,1,0
36,749.7060204508707,11653.67769779625,42.502964763975484,143.46652300904128,1436.8409883892164,-3792272.7838966874,2794174.9832134717,4287928.306083374,-289.1172447637581,-249.86475233994577,60.60428829768428,-12.440514726248622,29.16262451092647,-103.27565772462158,-3.772088890502319,1.8737687950215838,3.4130086350027815,15.088697033577386,-0.005582527491507783,-1.858756893747512,220,0.3227424500879146,113,80,0,7.06628687855699,0.030359556987882907,0,6213.23965498421,-341.59069096409553,-4.185254469716384,-1393.5212337970715,11653.67769779625,0,0,0,0,0,270,896.5463402805622,0,0,-0.7162357817548795,-0.2689136729355308,-0.6439656368489699,0.3291809783445356,0.6834762029219892,-0.651536770670293,0.6153423343392778,-0.6786351866412927,-0.40100884656354696,386.9031602891841,4374941.927170763,9.385695462994066,0.45563285027198264,4.463512644851488,1,0
37,742.7534099078393,11696.798936635763,42.502852398974845,143.46687899200967,1542.5595995318145,-3792563.4291151334,2793926.1065840297,4287990.52818913,-292.19279366764073,-247.88971545112523,63.846578373514106,-12.534296593059409,29.383661586276045,-108.17717350938008,-3.9271764808110534,1.8886989101799738,3.4900736716975853,15.251786707565552,-0.005810305710565622,-1.7997637600102419,220,0.3373865799617415,113,80,0,6.452174380585214,0.029020609705142305,0,6702.375751690143,-368.48235240439215,-4.315624379131229,-1336.7806697761605,11696.798936635763,0,0,0,0,0,270,928.2684055781094,0,0,-0.7162628005871094,-0.26896668693075054,-0.6439134427984916,0.3291250143004465,0.6834541311251414,-0.6515881948053608,0.615340820567628,-0.67863640631009,-0.4010091053500963,388.4614849219232,4724954.894494213,9.41572684415189,0.49610321203387453,4.447237830620121,1,0
38,735.800799364808,11741.455372413307,42.50273905075531,143.46723810712987,1653.2265185359865,-3792857.208379962,2793679.201566914,4288056.012633573,-295.3847049627745,-245.92099261072096,67.12925568301296,-12.6590903328418,29.677935538784894,-113.17233079667471,-4.081183770265167,1.908263534968964,3.571395359442409,15.418238385422889,-0.0060344659396482925,-1.7462085678405828,220,0.3524585102575105,113,80,0,5.912641581100484,0.027734026873575325,0,7215.689390060169,-396.70324362197977,-4.44016486213376,-1284.861660074777,11741.455372413307,0,0,0,0,0,270,960.2642164317323,0,0,-0.7162898415359346,-0.26901972709883826,-0.643861203477964,0.32906901514514253,0.6834320336036681,-0.6516396540387644,0.61533929354774,-0.6786376366486176,-0.4010093663995233,390.1738016591362,5095055.903574053,9.44116430441229,0.5391448935152562,4.428569023572255,1,0
39,728.8481888217766,11787.622605850978,42.502624461843155,143.4676011760299,1768.9361795308068,-3793154.233872737,2793434.2657688456,4288124.802100558,-298.6832032604855,-243.94931382483463,70.45780486409772,-12.809262482606123,30.03215551795624,-118.26310190611368,-4.2269199894859035,1.9398665365764654,3.661576497928629,15.588168277141467,-0.006254088751774134,-1.7093921913277326,220,0.3679490922519033,113,80,0,5.433604510885522,0.02650041031683703,0,7752.471655607558,-426.21439000734665,-4.55828125946166,-1245.8874026353058,11787.622605850978,0,0,0,0,0,270,992.6071191657992,0,0,-0.7163169115380497,-0.26907280077873064,-0.6438089080819552,0.32901297224012505,0.6834099046842684,-0.651691158661185,0.6153377498108731,-0.6786388804515467,-0.40100963030476283,392.02962374267,5485372.9994786205,9.462994719366995,0.5847780052747964,4.407471190045772,1,0
40,721.8955782787452,11835.273367097578,42.502508423405175,143.4679688660695,1889.784891737625,-3793454.6084322263,2793191.305625182,4288196.944522733,-302.0827380862642,-241.96966656615555,73.83513000546525,-12.981671625331948,30.4389650180278,-123.45035896084127,-4.376044505371128,1.9718359646256838,3.7534788509311197,15.761693494627643,-0.0064656438145132,-1.6713398295591873,220,0.3838537675910483,113,80,0,5.005687370159663,0.025308817421472004,0,8312.008362452652,-456.9765271410182,-4.667519680421686,-1206.532832759929,11835.273367097578,0,0,0,0,0,270,1025.3566120140015,0,0,-0.7163440162210603,-0.2691259139314101,-0.6437565478306723,0.3289568785636259,0.6833877397575747,-0.6517427170246776,0.615336186543549,-0.6786401399855571,-0.4010098975467141,394.0240178095175,5896098.564894484,9.481882849841519,0.6330230311572376,4.383911923173503,1,0
41,714.9429677357139,11884.376853302325,42.50239074396477,143.46834178818847,2015.8693212475628,-3793758.4313170076,2792950.3306540223,4288272.489493188,-305.5782886716747,-239.97747201722004,77.26378953072485,-13.17354381572607,30.891671271557932,-128.73486348896063,-4.519358324048859,2.013589790017858,3.8529462755282378,15.93891756982621,-0.006674747866050268,-1.6464555667324108,220,0.4001699733572729,113,80,0,4.620973628626641,0.024183873234393895,0,8893.486961247232,-488.95982343586365,-4.7720640482427985,-1177.1218291246582,11884.376853302325,0,0,0,0,0,270,1058.5672328939995,0,0,-0.7163711607363659,-0.2691790720089684,-0.6437041146812894,0.3289007276869284,0.6833655345993069,-0.6517943367725838,0.615334601166098,-0.6786414173289117,-0.4010101685662909,396.15271140802906,6327424.96113503,9.498359352180412,0.6839144456297566,4.357862497151518,1,0
42,707.9903571926825,11934.898982058583,42.50227126357256,143.46872045195835,2147.2872351203114,-3794065.795600844,2792711.3561285823,4288351.489929088,-309.1657184436458,-237.96903343517084,80.74587465975061,-13.382575509723672,31.38481654792264,-134.11719880813294,-4.6649433930576265,2.0548058044812247,3.95278986787768,16.117809977928893,-0.006881986226913384,-1.6199267702115199,220,0.41689703201236145,113,80,0,4.273047739780167,0.023125559827915525,0,9495.99666082834,-523.6449386209221,-4.8723798869878925,-1146.8925326680442,11934.898982058583,0,0,0,0,0,270,1092.2843945613483,0,0,-0.7163983493788495,-0.2692322795538573,-0.6436516019194649,0.3288445142463474,0.6833432856811739,-0.6518460242760872,0.6153329915235681,-0.6786427142176442,-0.4010104437317874,398.41259845719395,6779546.823595487,9.5128385366638,0.7396215687135551,4.329297690006867,1,0
43,701.0377466496511,11986.801625904356,42.502149810137055,143.46910540524257,2284.135576484725,-3794376.7964788945,2792474.3949331897,4288433.997193673,-312.8543316188893,-235.95355883203354,84.27581565603398,-13.614255972089161,31.931303464176253,-139.59511288037527,-4.811777312860835,2.0985297152424662,4.055672578951848,16.300278223720646,-0.007088261621730929,-1.595465135721402,220,0.4340416144914155,113,80,0,3.964236094404971,0.022133198990885356,0,10118.790846543232,-559.6913101848558,-4.969138954962142,-1118.4812836042097,11986.801625904356,0,0,0,0,0,270,1126.5569984783608,0,0,-0.7164255867664457,-0.2692855414481944,-0.6435990023246669,0.3287882324752569,0.6833209892082455,-0.651897786384692,0.6153313552974123,-0.6786440325195661,-0.4010107234394511,400.8170752883336,7252849.474311235,9.525334741294772,0.7983754268007563,4.298197049297421,1,0
44,694.0851361066198,12040.04200926535,42.50202615214558,143.46949738472213,2426.508786031045,-3794691.5404653917,2792239.448962887,4288520.056088519,-316.65171094584645,-233.9383855572037,87.84924811181384,-13.873001542213686,32.541506218731215,-145.1669672058926,-4.95646258554123,2.148238147304756,4.163843291745374,16.48641422783326,-0.007359231629092022,-1.578426180595014,220,0.4516100741009358,113,80,0,3.6952819000579944,0.02120603778931152,0,10760.958191689228,-597.066946029585,-5.107933286916894,-1095.562150392541,12040.04200926535,0,0,0,0,0,270,1161.4508082762388,0,0,-0.7164528791125817,-0.26933886425774,-0.6435463061906601,0.3287318746226329,0.6832986400793204,-0.651949632312835,0.6153296893685383,-0.6786453747474464,-0.40101100822236313,403.3769510964326,7747676.109538714,9.535922416072854,0.8602214843250416,4.264545999843982,1,0
45,687.1325255635884,12094.573533788087,42.50190004802608,143.46989715874798,2574.5008393544704,-3795010.1359580406,2792006.518219877,4288609.710273458,-320.55677927600897,-231.92239393857813,91.46666179161656,-14.158325323715587,33.21385409580213,-150.83295770730507,-5.100333736354555,2.202805134584704,4.276542439606653,16.676335199495323,-0.007589997860037556,-1.5669130974675314,220,0.46960527913478617,113,80,0,3.4618592569960485,0.02040015348779985,0,11421.259088616334,-635.7212110138938,-5.215334398590902,-1076.6769540015298,12094.573533788087,0,0,0,0,0,270,1197.0344455404504,0,0,-0.7164802328969011,-0.26939225482824614,-0.6434935033911029,0.32867543260335863,0.6832762329716202,-0.6520015716692,0.6153279904823095,-0.6786467435232157,-0.4010112986367558,406.0921025694921,8264211.395708935,9.54486711625883,0.9251799141548032,4.228334939943168,1,0
46,680.179915020557,12150.346408636746,42.50177127525995,143.47030541647652,2728.2068866947666,-3795332.6870490955,2791775.607576976,4288703.005759351,-324.5616160479889,-229.8970245350411,95.13276769410626,-14.465881523255703,33.93672831715879,-156.59531740474253,-5.245269424531482,2.260336021738473,4.392815552057368,16.870176087305722,-0.007921599327039175,-1.55809962498022,220,0.48802952721264553,113,80,0,3.256201898186178,0.019896629481952022,0,12098.246299056751,-675.5914711913034,-5.388112757091803,-1059.7880705126045,12150.346408636746,0,0,0,0,0,270,1233.3696704167742,0,0,-0.7165076539774067,-0.2694457192410679,-0.6434405848051986,0.3286188991992444,0.6832537630663615,-0.6520536130907744,0.615326255640753,-0.6786481412619649,-0.4010115951949652,408.95369907960026,8802567.650009504,9.552545995760399,0.9932540733298264,4.189558568892953,1,0
47,673.2273044775256,12207.307861677551,42.50163964687256,143.47072274578565,2887.7238333532587,-3795659.291798496,2791546.727762378,4288799.992651358,-328.6635601519033,-227.86014428143298,98.84985863124325,-14.793394395480988,34.70680367231521,-162.45495899314363,-5.391194542309301,2.3211569789672284,4.512802400080702,17.068075523798996,-0.008246307296083444,-1.5523035487905474,220,0.5068882429632313,113,80,0,3.074425452131713,0.019391028377266688,0,12790.444952395432,-716.6133841715226,-5.551639232834736,-1045.053133883158,12207.307861677551,0,0,0,0,0,270,1270.5090539428422,0,0,-0.7165351473214832,-0.26949926270737323,-0.6433875426624008,0.32856226823052714,0.68323122626865,-0.6521057639268707,0.6153244823247256,-0.6786495699929522,-0.4010118983274555,411.9602840992029,9362915.617523016,9.559159164899281,1.0644449198739314,4.148215795391402,1,0
48,666.2746939344943,12265.402296981323,42.501505016354564,143.47114961506537,3053.1507957288995,-3795990.0413218043,2791319.8965490526,4288900.72586046,-332.8473221078968,-225.79583503677557,102.6278901514774,-15.131581335578034,35.502168410241055,-168.41649085750774,-5.537700764577138,2.3858549911927653,4.636932817642671,17.270197439883557,-0.008564921793818847,-1.5503434837105354,220,0.5261850995178717,113,80,0,2.9063912620373817,0.0188900578830344,0,13496.112512834155,-758.7067835346171,-5.706590646748807,-1032.9546301025725,12265.402296981323,0,0,0,0,0,270,1308.4943303253754,0,0,-0.7165627168593196,-0.2695528893982616,-0.6433343707779328,0.32850553475265176,0.6832086193280138,-0.652158030014799,0.6153226685602153,-0.6786510313061918,-0.4010122083714879,415.094667264344,9945310.160431027,9.565132280997556,1.1387297017905507,4.104309720770414,1,0
49,659.3220833914629,12324.572306728362,42.50136732967327,143.4715861978071,3224.5920751756057,-3796325.0098674074,2791095.14936587,4289005.271374632,-337.1019725677095,-223.69235581565192,106.47439840782627,-15.473639236321503,36.30686059001671,-174.48364582087686,-5.6877716304181964,2.4515920854634023,4.763526885168513,17.476713045197055,-0.008872016904423852,-1.5477763018330855,220,0.545926891648721,113,80,0,2.7453316370398273,0.018385900008203813,0,14213.477543054343,-801.7894509342764,-5.849516669307837,-1020.4830959485208,12324.572306728362,0,0,0,0,0,270,1347.3408727517776,0,0,-0.7165903640288206,-0.26960660084989174,-0.6432810668434203,0.3284486969196636,0.6831859410291247,-0.652210413495464,0.615320813619056,-0.6786525257879148,-0.40101252545134614,418.3453208483459,10549866.818358382,9.570740988677171,1.2160815952197153,4.057846325288549,1,0
50,652.3694728484315,12384.757273404968,42.50122654379856,143.47203263662013,3402.1532599488273,-3796664.270295105,2790872.5237328815,4289113.696950165,-341.43151453449155,-221.55295018171168,110.38790039786629,-15.821543308547845,37.12583646774332,-180.65638641817708,-5.843874629533875,2.5160612260353554,4.891213243959347,17.687788940942085,-0.009147105871876171,-1.5409609007418634,220,0.5661253433385663,113,80,0,2.5924468772750804,0.017842974029826805,0,14940.851574369875,-845.7837261482643,-5.967292635724923,-1005.2758504970145,12384.757273404968,0,0,0,0,0,270,1387.0612352110056,0,0,-0.7166180899950502,-0.2696603983347521,-0.6432276289633312,0.3283917532013332,0.6831631903786715,-0.6522629161166451,0.6153189169212993,-0.678654053904917,-0.4010128496659693,421.7187183488373,11176843.59142027,9.575949959327776,1.2964796198315824,4.008836764197649,1,0
51,645.4168623054002,12445.893098072758,42.50108260124747,143.4724891166403,3585.940278694965,-3797007.8986302107,2790652.0551158763,4289226.069386323,-345.83857338650347,-219.3789015404511,114.3678520054526,-16.176612051417166,37.96165623248029,-186.93534837006305,-6.005360997614776,2.580079009561345,5.02060423233411,17.90360548833481,-0.009421815057221394,-1.5310936058841573,220,0.5867928926070618,113,80,0,2.4479957555979097,0.01732978707179304,0,15676.420876985414,-890.6042198379623,-6.080998311453302,-988.193631005615,12445.893098072758,0,0,0,0,0,270,1427.6718122278924,0,0,-0.7166458962913045,-0.26971428349405424,-0.64317405467581,0.32833470162697986,0.6831403660813349,-0.6523155401627203,0.6153169776922746,-0.6786556162808561,-0.40101318114757317,425.2192691488099,11826487.756179249,9.580760246661551,1.3798899158859343,3.957298067490964,1,0
52,638.4642517623688,12507.91221993533,42.500935421308185,143.47295589423058,3776.059201553464,-3797355.9758740403,2790433.77532578,4289342.453671527,-350.3306399479818,-217.17635911273894,118.41105055275547,-16.542827020321397,38.82368124264355,-193.32013860050267,-6.164789380457129,2.640808326837659,5.145888550493441,18.114322726656834,-0.009696871532177909,-1.5187797163101306,220,0.6079441223240267,113,80,0,2.314309047917843,0.016846305351423726,0,16418.323854582915,-942.5647140782997,-6.1911058272277995,-969.6865551658098,12507.91221993533,0,0,0,0,0,270,1469.195421215883,0,0,-0.7166737850593206,-0.26976825859602366,-0.6431203405761751,0.3282775394821272,0.6831174663429553,-0.652368288812954,0.6153149948443537,-0.6786572137915062,-0.40101352008185803,428.85697515236365,12499093.1377143,9.585097089171589,1.4762999047738614,3.9032534291241796,1,0
53,631.5116412193374,12570.743680428368,42.50078489280016,143.47343332252612,3972.6161090452224,-3797708.58960767,2790217.7110872604,4289462.912301081,-354.9118452338101,-214.94777913762974,122.51667867825518,-16.92206149334673,39.71630608756104,-199.81159422274234,-6.31517869525247,2.6956252477900096,5.261650632381,18.310743909964494,-0.009973062975952018,-1.5046241311776543,220,0.6295941169863067,113,80,0,2.1918452450030026,0.016392393196906132,0,17164.56564886441,-1007.2957418997001,-6.298105367926929,-950.1876544982201,12570.743680428368,0,0,0,0,0,270,1511.6635089967815,0,0,-0.7167017592579675,-0.26982232677113116,-0.6430664819848311,0.3282202630347376,0.6830944886992089,-0.6524211664578135,0.61531296687941,-0.678658847643335,-0.4010138667246793,432.6376107064873,13194935.055670299,9.58895622083952,1.59505490659648,3.846732444838493,1,0
54,624.5590306763061,12634.313703652948,42.500630897351726,143.4739217773358,4175.718560129404,-3798065.82984648,2790003.8885526676,4289587.50817607,-359.58394787268725,-212.6928789734737,126.68573518939921,-17.314654474211025,40.640312514426085,-206.41156642044137,-6.467160534421362,2.750332940018496,5.37795876028003,18.508588525117744,-0.010251128724600989,-1.4896122162578767,220,0.6517590242413616,113,80,0,2.079875471476233,0.01596765068701379,0,17913.04490869533,-1074.6075952188082,-6.4024350195755835,-930.3507618696036,12634.313703652948,0,0,0,0,0,270,1555.1095920738796,0,0,-0.7167298220369627,-0.2698764913506221,-0.6430124739218839,0.32816286831378416,0.6830714305275156,-0.6524741777704028,0.6153108922024164,-0.6786605191208421,-0.4010142213484395,436.56402947816343,13914290.51965198,9.592375517178219,1.72058611346179,3.7877705391360057,1,0
55,617.6064201332747,12698.545949472425,42.50047331255738,143.47442164442998,4385.476123809814,-3798427.7885463587,2789792.3342348915,4289716.305221017,-364.34881245936856,-210.4109182257894,130.9194145943952,-17.72104158171352,41.596175148570616,-213.12230163632083,-6.617568077141429,2.808091824999991,5.49679061272469,18.707840390926332,-0.010569057990661435,-1.4786357703266102,220,0.6744567252580016,113,80,0,1.9776458518964792,0.01562660734111471,0,18661.589922858482,-1144.4636172077257,-6.527518069793373,-913.2149447924261,12698.545949472425,0,0,0,0,0,270,1599.5680800158048,0,0,-0.7167579766366448,-0.2699307557450349,-0.642958311269601,0.3281053512481167,0.6830482891289829,-0.6525273275505933,0.6153087691639805,-0.6786622295522889,-0.4010145842348175,440.63897327280426,14657465.588518519,9.595391773979156,1.853063018614281,3.7264088835587863,1,0
56,610.6538095902433,12763.361907660541,42.50031202547228,143.47493327743058,4602.001413536258,-3798794.5573519585,2789583.077649624,4289849.370188459,-369.2037932953952,-208.09657503475452,135.22234687526765,-18.138501441176587,42.57800537641799,-219.94768631611845,-6.765030393919278,2.8703300051900547,5.618985494651458,18.90850075265487,-0.010891615414571731,-1.4738450123918243,220,0.6977063106000825,113,80,0,1.8826118546888888,0.015309938766743797,0,19407.9280562056,-1216.813889411862,-6.651006445501912,-900.0090715626467,12763.361907660541,0,0,0,0,0,270,1645.0705476635687,0,0,-0.7167862260300181,-0.26998512307100286,-0.642903989328095,0.32804770810744655,0.6830250620214042,-0.6525806201965458,0.615306596242146,-0.6786639801632265,-0.4010149556436921,444.8603248429324,15424772.193084193,9.598103131704779,1.9926411172778238,3.662694078401431,1,0
57,603.701199047212,12828.68116608652,42.50014694045691,143.47545698052718,4825.4107876056805,-3799166.22669785,2789376.1524184234,4289986.773775027,-374.1504935285352,-205.74823499837112,139.5968681190658,-18.566833811550055,43.58541708128958,-226.89096289225571,-6.88247489446272,2.964550567848396,5.76143918144295,19.110578971707987,-0.011212189687705987,-1.5173687798514397,220,0.7215297136494623,113,80,0,1.7940078838471252,0.015007471887573808,0,20149.7747259852,-1291.601726379974,-6.768812358412826,-916.0373517931183,12828.68116608652,0,0,0,0,0,270,1691.644065767824,0,0,-0.7168145727560339,-0.27003959602020444,-0.6428495040566097,0.32798993566882706,0.6830017470758238,-0.6526340594784577,0.6153043721480803,-0.6786657719913516,-0.4010153357950784,449.2306908496382,16216598.952537311,9.600542057259016,2.1394718586254875,3.5966780210812086,1,0
58,596.7485885041806,12894.422456656132,42.499977955675185,143.4759930772877,5055.827868621796,-3799542.892674325,2789171.594286275,4290128.591072945,-379.20059543540765,-203.3603583674332,144.05321220924264,-19.007073907044088,44.62082277615673,-233.96841245955332,-6.9938379525053564,3.0661396434171326,5.9088994741498055,19.31376866135658,-0.011532522925723043,-1.571639680355628,220,0.7459915980014181,113,80,0,1.711226219466402,0.014719861343458509,0,20887.05770564643,-1368.958269295315,-6.882016777817468,-937.8737608893828,12894.422456656132,0,0,0,0,0,270,1739.3174347004801,0,0,-0.7168430195170833,-0.2700941774553416,-0.6427948511573136,0.32793203050527525,0.6829783420275918,-0.6526876494081445,0.6153020955094479,-0.6786676061415957,-0.4010157249232478,453.7618922757834,17035234.174992267,9.602734321579414,2.2940284998859695,3.5284164619840035,1,0
59,589.7959779611492,12960.508125745926,42.49980495919466,143.47654192311668,5293.4000385235995,-3799924.6676756465,2788969.447661586,4290274.912393858,-384.36983104212567,-200.92478760957565,148.6058649655109,-19.460374532913107,45.68691492193684,-241.20273851827534,-7.129185591186028,3.1423556554677976,6.04299126755469,19.517579686569984,-0.013622252334908325,-1.588592852834383,220,0.7711781785421344,113,80,0,1.6335003878797612,0.014447075543771424,0,21620.6923951969,-1449.1181270707189,-8.034349637899492,-936.9456752195456,12960.508125745926,0,0,0,0,0,270,1788.122256786156,0,0,-0.7168715692839611,-0.27014887052133335,-0.6427400259112532,0.32787398885459895,0.6829548443902203,-0.6527413943948278,0.6152997648178692,-0.6786694838284522,-0.40101612328570657,458.469890389165,17884018.19108713,9.6047101937717,2.456982043316298,3.457961651933169,1,0
60,582.8433674181179,13026.860755141022,42.49962782957188,143.47710390342152,5538.28821949102,-3800311.674205646,2788769.7612469783,4290425.836412359,-389.6643657367389,-198.4392550570273,153.25958218294895,-19.927497855852636,46.785467683025345,-248.60181639554995,-7.240098666795449,3.2455712293235326,6.19201037644381,19.721885342317133,-0.013995253256467777,-1.6448821658936046,220,0.7971313828015614,113,80,0,1.5606113341129584,0.01418978224667404,0,22348.876926629488,-1532.0906903908808,-8.157040535868777,-958.708660575435,13026.860755141022,0,0,0,0,0,270,1838.0928379142667,0,0,-0.7169002252801644,-0.2702036786289467,-0.6426850232023726,0.32781580663849513,0.6829312514680139,-0.6527952992219576,0.6152973784368028,-0.6786714063696195,-0.4010165311618469,463.3626607782451,18764306.5755953,9.606480178017225,2.628649095172418,3.3853679310096623,1,0
61,575.8907568750865,13093.401465346864,42.49944644428478,143.4776794067889,5790.661415686831,-3800704.0398196327,2788572.5870584864,4290581.467169199,-395.08969459825045,-195.900522819121,158.01983208390664,-20.408703642984648,47.917073569952706,-256.17402794729566,-7.228242009915277,3.2456626500473504,6.188389228054524,19.710426337264472,-0.014372289289401152,-1.651552544328581,220,0.8238953533992954,113,80,0,1.4920574973076277,0.013948366699033071,0,23069.67712221663,-1742.3491236489863,-8.27686855690289,-951.1138447723623,13093.401465346864,0,0,0,0,0,270,1889.2637529111087,0,0,-0.7169289907552993,-0.27025860521552036,-0.6426298378705657,0.3277574797444991,0.6829075605415685,-0.6528493687112656,0.6152949347151512,-0.6786733750944747,-0.4010169488335278,468.44759466814406,19677523.079361927,9.608063988222597,3.025485481141192,3.3106948008660035,1,0
62,568.9381463320551,13160.049860531504,42.49926066580994,143.47826886932617,6050.696755012497,-3801101.9001524434,2788377.9781180727,4290741.912957823,-400.6545887428999,-193.30788442861225,162.89084283972392,-20.90593903463015,49.0863008024716,-263.9277613514373,-7.17806492532747,3.227885119975105,6.151697204617142,19.645265483630155,-0.01486695866373644,-1.6579145671056406,220,0.8515185675672194,113,80,0,1.4282859572599955,0.013723058443856002,0,23781.128149001965,-1983.10893207386,-8.458379903741,-943.2508405859937,13160.049860531504,0,0,0,0,0,270,1941.6737848408372,0,0,-0.7169578693592213,-0.2703136541404534,-0.6425744641277934,0.32769900355954407,0.6828837685610127,-0.6529036082776621,0.6152924317996831,-0.6786753914951864,-0.40101737661713355,473.7356481668269,20625255.606896985,9.60944856917825,3.4856318650084646,3.234007336879513,1,0
63,561.9855357890237,13226.724301274957,42.49907035200997,143.47887274159748,6318.58080136124,-3801505.397462108,2788185.9907537187,4290907.288061867,-406.36493347234716,-190.65685951163272,167.8794939209778,-21.419133063139256,50.29296425883268,-271.8731271760408,-7.104275115319064,3.2012263455909435,6.097014083949541,19.549170684851468,-0.015604571207775919,-1.6664247223106416,220,0.8800533690207044,113,80,0,1.3685670698596317,0.013513905645182567,0,24481.185037211817,-2240.373139717626,-8.769543310963007,-936.5065904198207,13226.724301274957,0,0,0,0,0,270,1995.363054210267,0,0,-0.7169868648628017,-0.2703688293902101,-0.6425188959932446,0.3276403733175536,0.6828598723746203,-0.6529580235151807,0.6152898677749736,-0.67867745711397,-0.4010178148396536,479.2348294041108,21609231.44980579,9.61066067833475,3.98653167571681,3.1553760475976973,1,0
64,555.0329252459924,13293.342024243613,42.49887535602444,143.47949148898198,6594.510385398753,-3801914.681150123,2787996.684939231,4291077.7133070305,-412.2287343750744,-187.94422433770706,172.99224734813046,-21.94917540021474,51.53914250444545,-280.0206668347638,-7.009828305724473,3.1609588077262085,6.0199106361321615,19.419986402590617,-0.016011083048251606,-1.6703152252445994,220,0.909556990127222,113,80,0,1.312711151163503,0.01332083097698269,0,25167.755179994627,-2514.6101629763502,-8.886678260627422,-927.0799455504285,13293.342024243613,0,0,0,0,0,270,2050.3729693754285,0,0,-0.717015981160843,-0.2704241350814866,-0.6424631272885502,0.3275815840955876,0.6828358687262996,-0.6530126202013443,0.6152872406619362,-0.6786795735442681,-0.4010182638389318,484.9555428582446,22631363.004611418,9.611708242766811,4.530560348040375,3.0748769994140255,1,0
65,548.080314702961,13359.819146938784,42.49867551641753,143.48012562304083,6878.693004560657,-3802329.910124887,2787810.1228209264,4291253.315523019,-418.2574337517491,-185.16928705744027,178.23439008166653,-22.498683474224407,52.83098396048341,-288.3810684560808,-6.883028199883599,3.1160444449010374,5.925596018417793,19.255466368134876,-0.016668455057825327,-1.6850357437021337,220,0.9400920823604766,113,80,0,1.2613810848791753,0.013143723458452727,0,25838.70133667769,-2806.2770801391393,-9.135652093705492,-923.534920694003,13359.819146938784,0,0,0,0,0,270,2106.74904181233,0,0,-0.717045222536635,-0.27047957574085024,-0.6424071512245462,0.327522630483778,0.6828117540384502,-0.6530674046895325,0.6152845482850793,-0.6786817425376821,-0.4010187239863511,490.9118490785725,23693770.772008795,9.61257041791332,5.120193163040414,2.99259216042111,1,0
66,541.1277041599296,13426.070845985352,42.49847066107621,143.4807756890961,7171.347976668738,-3802751.2526495955,2787626.3698665337,4291434.228641803,-424.4567954885999,-182.32456113627967,183.61578544152175,-23.066521766751208,54.16579530224091,-296.96769888939724,-6.729567736773775,3.0586003967284343,5.807878687014251,19.053299411644133,-0.017221709943710195,-1.6992916414601593,220,0.9717261521318267,113,80,0,1.2132734576103292,0.01298242871558716,0,26491.7785722013,-3115.8026786906216,-9.319144363547073,-919.5337846414953,13426.070845985352,0,0,0,0,0,270,2164.539829362309,0,0,-0.7170745935569891,-0.2705351561938039,-0.6423509605646067,0.32746350671584656,0.6827875244977366,-0.6531223837533155,0.6152817883250239,-0.6786839659616593,-0.4010191956778549,497.11223430257184,24798749.557748955,9.613291978447993,5.757980333917167,2.908609450070725,1,0
67,534.1750936168983,13492.011954971802,42.498260621654815,143.48144222024928,7472.709665120579,-3803178.8851506775,2787445.498676447,4291620.5970601775,-430.84090424528296,-179.40485213301136,189.14730968422847,-23.654425466438767,55.547646397455935,-305.7985578114004,-6.575576303215929,3.021020001837609,5.710312645037226,18.86962596197249,-0.018046393636911517,-1.7349179855226655,220,1.004548775018156,113,80,0,1.168382318092226,0.012836509560813593,0,27125.522326607595,-3412.327740219293,-9.639934010445407,-926.7499773342107,13492.011954971802,0,0,0,0,0,270,2223.7927650631805,0,0,-0.7171040986842125,-0.2705908811547303,-0.642294548230179,0.32740420715276247,0.6827631763732618,-0.653177564011016,0.6152789585131073,-0.6786862456427127,-0.4010196793006861,503.57391761343456,25949646.688006207,9.613873805102397,6.388032278170122,2.8230220072928045,1,0
68,527.2224830738669,13557.558161925615,42.49804520481786,143.48212582891946,7783.03416289296,-3803613.0023925523,2787267.5870929817,4291812.577796615,-437.4285748122602,-176.404400013558,194.8422983117679,-24.265120716362787,56.98293967889451,-314.8963674334961,-6.655685456803103,3.12259166748332,5.847072663871799,19.043528727519018,-0.01955710131449706,-1.8050400610113062,220,1.0386695590709145,113,80,0,1.1269793282876914,0.012705477079667592,0,27739.030129181854,-3517.381659714525,-10.310943516756636,-951.6577030141879,13557.558161925615,0,0,0,0,0,270,2284.562333723383,0,0,-0.7171337430482216,-0.27064675604292626,-0.6422379060948429,0.3273447253195765,0.682738705382858,-0.6532329530707939,0.615276056243942,-0.678688583678538,-0.40102017529959966,510.3193035912324,27150791.061306555,9.614307458895333,6.671531986282383,2.7359262633575687,1,0
