time(s),mass(kg),thrust(N),lat(deg),lon(deg),altitude(m),pos_ECI_X(m),pos_ECI_Y(m),pos_ECI_Z(m),vel_ECI_X(m/s),vel_ECI_Y(m/s),vel_ECI_Z(m/s),vel_NED_X(m/s),vel_NED_Y(m/s),vel_NED_Z(m/s),acc_ECI_X(m/s2),acc_ECI_Y(m/s2),acc_ECI_Z(m/s2),acc_Body_X(m/s2),acc_Body_Y(m/s2),acc_Body_Z(m/s2),Isp(s),Mach number,attitude_azimuth(deg),attitude_elevation(deg),attitude_roll(deg),angle of attack alpha(deg),angle of attack beta(deg),all angle of attack gamma(deg),dynamic pressure(Pa),aeroforce_Body_X[N],aeroforce_Body_Y[N],aeroforce_Body_Z[N],thrust_Body_X[N],thrust_Body_Y[N],thrust_Body_Z[N],gimbal_angle_pitch(deg),gimbal_angle_yaw(deg),wind speed(m/s),wind direction(deg),downrange(m),IIP_lat(deg),IIP_lon(deg),dcmBODY2ECI_11,dcmBODY2ECI_12,dcmBODY2ECI_13,dcmBODY2ECI_21,dcmBODY2ECI_22,dcmBODY2ECI_23,dcmBODY2ECI_31,dcmBODY2ECI_32,dcmBODY2ECI_33,inertial velocity(m/s),kinematic_energy_NED(J),loss_gravity(m/s2),loss_aerodynamics(m/s2),loss_thrust(m/s2),is_powered(1=powered 0=free),is_separated(1=already 0=still)
1,993.0473894569686,11028.302621500052,42.506125624415475,143.45649274654477,15.540972609072924,-3783605.6394844875,2803742.1493009934,4287226.888753455,-206.5608834302725,-276.5431610805877,0.18622239552109066,-0.7507325387679618,1.7683026778598327,-1.0947168276030856,-2.115549219777363,-0.6397132238911496,0.21054756673988972,11.105349407846576,-0.00000032798497517916303,-0.001768329863360396,220,0.006498713307844159,113,80,0,50.323403353491535,0.004953440502126057,0,2.989985356270451,-0.1643830305180054,-0.0003257046244920446,-1.7560353545101972,11028.302621500052,0,0,0,0,0,270,0.9692384309580379,0,0,-0.7153080678089039,-0.2670787085282293,-0.6457579512312535,0.331112930928931,0.6842293582103316,-0.6497648900446459,0.61538491621029,-0.6786008759307425,-0.4010015661900629,345.171773444352,2427.454014857367,4.863110876979547,0.00016553392341919909,3.999504374782964,1,0
2,986.0947789139373,11029.091248797062,42.5061154712098,143.45652506549106,17.215291342698038,-3783813.266976728,2803465.291067164,4287227.188579841,-208.7028699964855,-277.168399240573,0.42185985549923366,-1.505537068894792,3.5455910902830166,-2.267012220352742,-2.16816095246638,-0.6102704608954337,0.2611224032265289,11.183934733728556,-0.0000025896300908101466,-0.00727912925415275,220,0.013137036352858306,113,80,0,49.521932024733545,0.009505733062754674,0,12.215826759621969,-0.6716001530971948,-0.0025536207120988416,-7.17791135255978,11029.091248797062,0,0,0,0,0,270,3.848893376317958,0,0,-0.7153324854089008,-0.2671288919373883,-0.6457101442683301,0.3310604303757386,0.6842096584339947,-0.6498123842656947,0.6153847794332871,-0.6786009861457168,-0.40100158957777854,346.9573279930679,9849.707517877856,4.982005371090387,0.000681070590229552,4.026903737971727,1,0
3,979.1421683709059,11030.450400371952,42.5060985100014,143.45657904613464,20.101510686799884,-3784023.0624912414,2803187.822818328,4287227.7497326275,-210.89665062754662,-277.7626801332384,0.709283247822136,-2.2630006251330332,5.328530889152854,-3.518854219709964,-2.219108679016365,-0.5777621035537797,0.31414540618556686,11.263847286262592,-0.000008723570453561535,-0.01684591070549679,220,0.019912930073510846,113,80,0,48.7073150006636,0.013843387964312247,0,28.05754864119743,-1.5425443020561724,-0.008541615690201138,-16.494541536362096,11030.450400371952,0,0,0,0,0,270,8.67277817582573,0,0,-0.7153570830545789,-0.2671792677724063,-0.6456620498343117,0.3310077010942454,0.6841898059680166,-0.6498601474361622,0.6153845509435115,-0.6786011702628052,-0.40100162864757055,348.7549380344927,22469.72081875785,5.101848855804485,0.0015754038094617593,4.05410953368761,1,0
4,972.1895578278745,11032.41752345489,42.50607472367509,143.4566547354902,24.28020230680704,-3784235.0769613506,2802909.7770813154,4287228.625247955,-213.14047504341585,-278.3228276946429,1.0510192623455608,-3.0215893861684653,7.113508700153732,-4.8523096899101645,-2.2682196253602624,-0.5419665263350284,0.3697742074483692,11.345132955783296,-0.000020671964955809585,-0.03078769684534377,220,0.026824214310880536,113,80,0,47.87799255381042,0.017958359502169383,0,50.88832288906317,-2.7977316734812585,-0.020097068473192956,-29.93147738261271,11032.41752345489,0,0,0,0,0,270,15.43600420428007,0,0,-0.715381861114863,-0.2672298363983143,-0.6456136672394451,0.33095474256616875,0.6841698004297578,-0.6499081800938241,0.615384230510334,-0.6786014284677241,-0.401001683438821,350.5617822284179,40480.47493328904,5.222793943291968,0.00287776355028141,4.081079090593944,1,0
5,965.2369472848432,11035.030783364105,42.506044109478744,143.45675213486956,29.83405550941825,-3784449.3594835196,2802631.189670495,4287229.870768043,-215.43241964314723,-278.8454422684531,1.4497539262662653,-3.779646901103764,8.896627998825199,-6.269547584175764,-2.315320053845916,-0.5026582604368861,0.4281698011360371,11.427840204563685,-0.000040346862006046535,-0.049427988122240585,220,0.03386863067265175,113,80,0,47.03238878774457,0.02184351559635913,0,81.07244124753238,-4.457190252057163,-0.0389442819147002,-47.70972036554086,11035.030783364105,0,0,0,0,0,270,24.14001720249207,0,0,-0.7154068195703756,-0.26728059777077495,-0.6455649963926925,0.33090155475165883,0.6841496417507444,-0.6499564822011262,0.6153838180965885,-0.6786017607902481,-0.4010017539578098,352.37481449961354,64064.19864011,5.344984121314898,0.004617716162435542,4.107767763955915,1,0
6,958.2843367418118,11038.329060782751,42.50600668013392,143.4568711964153,36.847980961203575,-3784665.957143674,2802352.0999132036,4287231.54470216,-217.77038691259756,-279.3268970175041,1.9083358294262498,-4.535392731733412,10.673705881863162,-7.77284223467787,-2.3602359856309256,-0.45960848590696335,0.48949627949064567,11.512020255787668,-0.00006959600181932757,-0.07309387109099807,220,0.04104391397629576,113,80,0,46.16891486482339,0.02549274936982578,0,118.9635981880444,-6.5403654069629455,-0.06669275844271398,-70.04471177832895,11038.329060782751,0,0,0,0,0,270,34.7792699292253,0,0,-0.7154319579840094,-0.26733155140538234,-0.6455160378475178,0.33084813812562774,0.6841293302008221,-0.6500050531017278,0.6153833138735337,-0.6786021670921527,-0.4010018401751567,354.190765773372,93391.92909395997,5.468552234769221,0.0068250780652434895,4.134128866894579,1,0
7,951.3317261987804,11042.351945459703,42.505962464957136,143.4570118195996,45.409217740409076,-3784884.9148432733,2802072.5508785336,4287233.708390702,-220.15210548642662,-279.7633347684839,2.4297791185697513,-5.2869214440184615,12.440270576391558,-9.364576680904019,-2.40279377927175,-0.41258539933946947,0.5539206386954154,11.597727264157854,-0.00011016913763839398,-0.10211532850750249,220,0.04834787229198494,113,80,0,45.285972425677734,0.028901072543605535,0,164.9035699027672,-9.066047265752127,-0.10480739588450351,-97.14555174039722,11042.351945459703,0,0,0,0,0,270,47.34543339565937,0,0,-0.7154572754712284,-0.26738269634665945,-0.6454667928481501,0.33079449371446434,0.6841088664125594,-0.650053891476633,0.6153827182359592,-0.6786026470550443,-0.40100194202323874,356.00614721863235,128623.45837542441,5.5936188696706965,0.009529848543974428,4.1601136023853655,1,0
8,944.379115655749,11047.139725954807,42.50591151098887,143.4571738476969,55.6074437238276,-3785106.2751256987,2801792.589609121,4287236.426272176,-222.57513069730294,-280.15066514563557,3.0172663419795516,-6.032201856344484,14.19155947189778,-11.047246056072387,-2.4428205184990714,-0.3613544174068908,0.6216126777551345,11.685018461792932,-0.00016368597162230714,-0.13682481665133883,220,0.05577847549855233,113,80,0,44.381957184216105,0.032064688439893026,0,219.22137526411086,-12.052324585692684,-0.15458161312667945,-129.2144993489522,11047.139725954807,0,0,0,0,0,270,61.82450041773333,0,0,-0.715482770670171,-0.26743403113683484,-0.6454172633762114,0.33074062313303776,0.6840882514058463,-0.6501029953000228,0.6153820318173948,-0.6786032001681056,-0.4010020593935904,357.81725486991536,169907.71592622643,5.720290640436401,0.012762167635742247,4.185670996441342,1,0
9,937.4265051127177,11052.733375070638,42.505853884128655,143.45735706423457,67.53488940745592,-3785330.0780033516,2801512.2673557275,4287239.766053007,-225.0368453970569,-280.48456180857374,3.674151249556012,-6.7690764248902,15.922517398103734,-12.82346105647766,-2.480144159999183,-0.30567817445899426,0.692745014596718,11.773954272826785,-0.0002316067613650219,-0.17755717844725982,220,0.06333395216312591,113,80,0,43.45526267506435,0.034981042932948785,0,282.2330026950145,-15.516569737676802,-0.2171143168663064,-166.44680524949013,11052.733375070638,0,0,0,0,0,270,78.19663819829313,0,0,-0.71550844171159,-0.26748555378442357,-0.645367452197655,0.3306865286219632,0.6840674866126542,-0.6501523617948348,0.6153812555054045,-0.6786038257157754,-0.40100219213428956,359.62017544433064,217383.63325661296,5.84865838309972,0.016552305330657432,4.210747832924498,1,0
10,930.4738945696863,11059.17453058873,42.50578967027549,143.4575611894224,81.28645525872707,-3785556.3607855984,2801231.639814627,4287243.798880162,-227.53446078457043,-280.76045956679576,4.403961677927712,-7.495260618213075,17.62779480820052,-14.695951524159629,-2.514593390598071,-0.2453162710366339,0.7674932442045632,11.864598389934432,-0.0003152065592715303,-0.2246499630344143,220,0.07101289446320863,113,80,0,42.504284122586704,0.03764885230303964,0,354.24178295507795,-19.475459201208903,-0.2932914748000752,-209.03092601956615,11059.17453058873,0,0,0,0,0,270,96.43721007723869,0,0,-0.7155342861886478,-0.26753726173262543,-0.6453173629099955,0.33063221308510704,0.6840465739019468,-0.6502019873881137,0.6153803904569487,-0.6786045227653711,-0.40100234004733215,361.41079311379764,271181.53280511353,5.978795259081607,0.020930688453345232,4.235288590480844,1,0
11,923.5212840266549,11066.505470905066,42.50571897647466,143.45778587655798,96.95983270183206,-3785785.157907417,2800950.7673680508,4287248.599516776,-230.06501692420176,-280.9735510998776,5.210402675163434,-8.208342104436706,19.301745461559445,-16.66757017891806,-2.545997142582207,-0.18002472937370673,0.8460362638682266,11.957017805921934,-0.000415553903121868,-0.2784442234644118,220,0.07881437079566724,113,80,0,41.52742239220813,0.040068107628898175,0,435.5394820541188,-23.94503365046666,-0.38377287419379463,-257.1491667836596,11066.505470905066,0,0,0,0,0,270,116.51505181275648,0,0,-0.7155603011265359,-0.2675891518275083,-0.645266999989877,0.33057768012737576,0.6840255156047677,-0.6502518676660869,0.6153794381138387,-0.6786052901546424,-0.4010025028859916,363.18479693682957,331425.0776627372,6.110754776261379,0.025927971628400014,4.259235382150007,1,0
12,916.5686734836236,11074.76908518521,42.50564193207323,143.45803070839875,114.65562894567847,-3786016.5007582554,2800669.715328238,4287254.246521093,-232.62538258724084,-281.1187829682571,6.09736004472622,-8.905779545631335,20.938423134149527,-18.74129654138316,-2.574183715931574,-0.10955511170783616,0.9285567905693721,12.051282793567058,-0.0005334945889226006,-0.3392858643226302,220,0.08673804566781046,113,80,0,40.52308797568777,0.042240056041511015,0,526.4081811927347,-28.940801309431553,-0.48898442767864964,-310.97879459393846,11074.76908518521,0,0,0,0,0,270,138.39264907699496,0,0,-0.7155864829518472,-0.267641220285893,-0.6452163688410916,0.3305229340928823,0.6840043145395589,-0.6503019973288566,0.6153784002183028,-0.6786061264792312,-0.40100268035215914,364.9376886002996,398233.813421482,6.244568736311121,0.03157515868334839,4.282527898205461,1,0
13,909.6160629405922,11084.008837626492,42.50555868988904,143.45829519348578,134.47749584820122,-3786250.417510223,2800388.5541859795,4287260.82242924,-235.21225399788062,-281.1908505553773,7.06890451318663,-9.584900765468397,22.53157681916046,-20.92024109455546,-2.598979456722942,-0.033653257378775336,1.0152420951952257,12.147466826948424,-0.0006696409369917333,-0.4075276105121932,220,0.0947843064490777,113,80,0,39.4897049523351,0.04416715985397553,0,627.1230023011876,-34.47788779621526,-0.6091161526891484,-370.6936606136882,11084.008837626492,0,0,0,0,0,270,162.02616339469557,0,0,-0.7156128274615758,-0.2676934626628048,-0.6451654758432491,0.33046798010364775,0.6839829740378192,-0.6503523701445202,0.6153772788287392,-0.6786070300799849,-0.40100287209365293,366.6647900710356,471726.3281418951,6.380245119524463,0.03790378072783335,4.305103352851922,1,0
14,902.6634523975608,11094.268725413365,42.50546942739996,143.45857876239745,156.532263064757,-3786486.9329442843,2800107.3598649176,4287268.413942582,-237.82215201480716,-281.18419153809987,8.129296750686354,-10.242900028214931,24.074643815208724,-23.20764973687591,-2.6202069416835245,0.04794240499017999,1.1062849778302022,12.245646437611994,-0.0008243667210230399,-0.4835316675896446,220,0.10295439658581655,113,80,0,38.425714858146726,0.04585303521060678,0,737.9557290521254,-40.571235198631506,-0.7441257104402638,-436.46636441001993,11094.268725413365,0,0,0,0,0,270,187.364502328959,0,0,-0.7156393297915565,-0.2677458738182955,-0.6451143284013844,0.3304128240990703,0.6839614979702486,-0.6504029789024419,0.6153760763357385,-0.678607999030052,-0.4010030777014813,368.3612507112408,552024.0519127994,6.517765920592738,0.044946137002523374,4.326896435446275,1,0
15,895.7108418545295,11105.59322998082,42.505374347962444,143.45888076390315,180.93007584661245,-3786726.0682726395,2799826.2139832983,4287277.1121206265,-240.4514172298151,-281.0929774387038,9.28299349720342,-10.87683413965356,25.560740035015623,-25.606908585502524,-2.637682619472945,0.13550301376337526,1.2018850080321046,12.345900999050668,-0.0009978076820136295,-0.567673143402935,220,0.11125055495427848,113,80,0,37.329580384564736,0.04730237247636098,0,859.1793649539794,-47.2358526684689,-0.89374715886497,-508.47098917564864,11105.59322998082,0,0,0,0,0,270,214.34940648075695,0,0,-0.7156659843840979,-0.2677984478833725,-0.6450629349968859,0.3303574728764691,0.6839398907735843,-0.6504538153653112,0.615374795478506,-0.678609031121657,-0.4010032967070379,370.022053371757,639255.7143317166,6.657084950874417,0.05273560446211544,4.347839266917863,1,0
16,888.7582313114981,11118.027261159132,42.50527368207169,143.45920046097945,207.78453782666475,-3786967.8409549287,2799545.204125331,4287287.012580717,-243.09620241546946,-280.91110276814254,10.534655071498687,-11.483617053358852,26.982646803127793,-28.12154919409434,-2.651213859192042,0.22931194289514956,1.302250053913479,12.44831243294404,-0.001189867307960668,-0.6603443010177021,220,0.11967616115613677,113,80,0,36.199788818275444,0.04852084105024044,0,991.0736632370457,-54.487120442856984,-1.057504364117268,-586.886433029122,11118.027261159132,0,0,0,0,0,270,242.91477518533108,0,0,-0.7156927849544853,-0.26785117822468885,-0.6450113052402562,0.33030193413310976,0.683918157478391,-0.6505048702195007,0.6153734393618396,-0.6786101238524288,-0.4010035285792028,371.6420189439191,733562.4771680221,6.798125624546817,0.06130702200355764,4.367861362152929,1,0
17,881.8056207684667,11131.61609380844,42.50516768867807,143.45953702664005,237.21285926550627,-3787212.2645052993,2799264.424124831,4287298.215706058,-245.75246170385765,-280.6321712257653,11.889154563660062,-12.060012638428113,28.332793345930806,-30.755254255138325,-2.660595355412819,0.329668028130091,1.4075981244031661,12.552964830511517,-0.001400227339595439,-0.7619597148156134,220,0.1282358867548339,113,80,0,35.034855123397286,0.04951498164196696,0,1133.931658758449,-62.34114895449756,-1.2347283384084293,-671.9003593235457,11131.61609380844,0,0,0,0,0,270,272.9866966582603,0,0,-0.7157197244559462,-0.2679040574075753,-0.6449594499263211,0.3302462165102069,0.6838963037381343,-0.6505561330231319,0.6153720114738708,-0.6786112744111138,-0.40100377272131266,373.21580882464224,835103.7612415649,6.940778747494886,0.07069715534379238,4.386889599116392,1,0
18,874.8530102254354,11146.405296536206,42.50505665657835,143.45988953952383,269.33601126167923,-3787459.348286745,2798983.9743643757,4287310.826863902,-248.41593582639948,-280.2494783741155,13.35158903716701,-12.602625236403433,29.603234108946207,-33.511863862899425,-2.665604835912073,0.436889399046267,1.5181595505131646,12.659943981948992,-0.0016283622733501701,-0.8729624061699086,220,0.13693585271788528,113,80,0,33.83332455780438,0.05029208928130465,0,1288.0672312466004,-70.81519464274615,-1.4245776365783824,-763.7137888513843,11146.405296536206,0,0,0,0,0,270,304.48249825497237,0,0,-0.7157467950425999,-0.26795707715690276,-0.6449073810926467,0.33019032963950007,0.6838743358599351,-0.65060759215113,0.6153705157048107,-0.678612479662482,-0.4010040284679604,374.7379247304535,944063.7919736204,7.084900328735555,0.08094524887614918,4.4048481955509144,1,0
19,867.900399682404,11162.440652121948,42.504940905903,143.46025697917065,304.27888656407595,-3787709.0972884125,2798703.9620938073,4287324.956636095,-251.08213268825585,-279.75599015675255,14.927293093493152,-13.107887604456122,30.785619962305002,-36.39538241969143,-2.665998012564015,0.5513179704732858,1.6341795342366705,12.769336806256653,-0.0018735569835408583,-0.9938310433546125,220,0.1457837936787464,113,80,0,32.59377470647577,0.05086009041860831,0,1453.8237331171094,-79.92813429256599,-1.6260608548442292,-862.5463597442476,11162.440652121948,0,0,0,0,0,270,337.3108678416169,0,0,-0.7157739880298007,-0.26801022831516014,-0.6448551120820633,0.3301342841931323,0.6838522608374762,-0.6506592347364022,0.6153689563669935,-0.678613736131187,-0.40100429508157254,376.20270528395594,1060658.8980214004,7.230309434441761,0.0920936714878972,4.4216586941109295,1,0
20,860.9477891393726,11179.768069242804,42.50482078972529,143.4606382209056,342.17046762723476,-3787961.511880823,2798424.5017725816,4287340.7210645275,-253.7463024870013,-279.14431656962216,16.621855182996374,-13.572045807198323,31.87116227134715,-39.409986275753425,-2.6615027064894177,0.6733246551861587,1.755921098240223,12.881230672588197,-0.0021349264821264313,-1.1250883036377957,220,0.1547892300712196,113,80,0,31.31481680689385,0.05122741744651674,0,1631.5837251933356,-89.7010002837209,-1.8380602347617143,-968.6422876035272,11179.768069242804,0,0,0,0,0,270,371.3710269453363,0,0,-0.7158012938512022,-0.2680635007970307,-0.6448026576103614,0.33007809193767107,0.6838300863866227,-0.6507110466061339,0.6153673382165576,-0.6786150399843082,-0.40100457174870763,377.6043187897494,1185145.612848714,7.376786104059376,0.10418866441760484,4.437239956880552,1,0
21,853.9951785963412,11198.433485138185,42.50469669582169,143.46103203023804,383.1440027207136,-3788216.5875431295,2798145.7154411823,4287358.241914432,-256.40340650977856,-278.40667972876275,18.441137082228046,-13.991140578433454,32.85058871020939,-42.56003220203587,-2.651812064625349,0.8033153722114248,1.8836684764028062,12.99571260258461,-0.002411436777685516,-1.2673105153424848,220,0.16396364973105898,113,80,0,29.995096234903926,0.05140288382141652,0,1821.7798813927004,-100.15758010721737,-2.059355381634205,-1082.2770698869265,11198.433485138185,0,0,0,0,0,270,406.55244280368595,0,0,-0.7158287020117432,-0.26811688353964624,-0.6447500338403794,0.3300217657932442,0.683807820984399,-0.6507630122120317,0.6153656664771703,-0.678616387012247,-0.4010048575760052,378.93675161469645,1317829.6510837902,7.52406934644113,0.11728120089839401,4.451508170233717,1,0
22,847.0425680533099,11218.482758849184,42.50456904861764,143.46143705666756,427.3371909772977,-3788474.3145556143,2797867.733127612,4287377.646958944,-259.0480786509431,-277.5348754944856,20.39129700247797,-14.36098462382535,33.71408957524371,-45.850066806381776,-2.636576764996226,0.9417379426714261,2.0177309950432694,13.112868340707493,-0.002701925783886061,-1.4211387258432535,220,0.17332070121696716,113,80,0,28.633292014230864,0.05139556270832763,0,2024.907150457299,-111.32508499136661,-2.288646154673474,-1203.7649958982797,11218.482758849184,0,0,0,0,0,270,442.7341300166492,0,0,-0.71585620103565,-0.26817036444754105,-0.644697258463909,0.3299653198989328,0.6837854739120688,-0.6508151145531597,0.6153639468662445,-0.6786177726076149,-0.4010051515857087,380.1937915878271,1459075.8613193603,7.671855231210028,0.1314279697267354,4.464376861060918,1,0
23,840.0899575102785,11239.961554680805,42.50443831135769,143.46185182677291,474.8923773756251,-3788734.6776496232,2797590.693295874,4287399.070288802,-261.67457857651465,-276.52022770879347,22.47881685060093,-14.677135272142358,34.45125320350119,-49.284837017671705,-2.6153960806702665,1.0890899892049708,2.1584475081548327,13.232781276243752,-0.0030051232568926167,-1.5872913801535677,220,0.18287640189409313,113,80,0,27.228115209188566,0.05121467174198262,0,2241.5363009780417,-123.23489457838048,-2.524573869195835,-1333.467548109643,11239.961554680805,0,0,0,0,0,270,479.78415034625147,0,0,-0.7158837784083987,-0.2682239303312155,-0.6446443507930477,0.3299087696857158,0.6837630553031793,-0.6508673350898159,0.6153621856241834,-0.6786191917416842,-0.40100545271067245,381.36900583597816,1609319.2961260602,7.819795086573493,0.14669249819817384,4.475756925439965,1,0
24,833.1373469672471,11262.915215560768,42.50430498854493,143.46227473644254,525.9567588018253,-3788997.6556059862,2797314.7433443465,4287422.652651614,-264.27673531431395,-275.35353397137123,24.71053423510997,-14.934861801782308,35.05098890851659,-52.8693017806001,-2.5878076358038378,1.24592798730919,2.3061914680559106,13.355531196190938,-0.0033196688034404787,-1.7665788466126542,220,0.1926493647710051,113,80,0,25.778306057982643,0.050869466102255394,0,2472.329027537372,-135.92338742794362,-2.765740059707801,-1471.8028134753254,11262.915215560768,0,0,0,0,0,270,517.5588365498155,0,0,-0.7159114205114487,-0.26827756683804393,-0.644591331862862,0.32985213195845203,0.6837405761975461,-0.6509196536466781,0.6153603895472503,-0.6786206389379167,-0.40100575978874686,382.45571247021473,1769077.5903841117,7.967493809436504,0.16314643428568704,4.485556670869236,1,0
25,826.1847364242158,11287.388625988771,42.50416962870112,143.46270404208366,580.6826024791226,-3789263.2207916607,2797040.040163123,4287448.541825802,-266.84788218345227,-274.02500433203767,27.093678603799795,-15.129107834715803,35.50143908699531,-56.6086444802075,-2.5532895231626824,1.4128620050795986,2.4613689598279205,13.481192834256952,-0.0036458271827628508,-1.9598978364411468,220,0.2026610537487499,113,80,0,24.282632543382178,0.05036887874020933,0,2718.0549851437495,-149.43287753416257,-3.0121267700380443,-1619.2376774185198,11287.388625988771,0,0,0,0,0,270,555.902000915772,0,0,-0.71593911254836,-0.2683312583740767,-0.6445382245475058,0.3297954249886109,0.68371804860231,-0.6509720483031745,0.6153585660247594,-0.6786221082420124,-0.4010060715564269,383.446948931991,1938964.9897788644,8.11450801265734,0.18087102187450027,4.493681873232935,1,0
26,819.2321258811844,11313.426061975377,42.50403282742069,143.46313785096604,639.2274729916826,-3789531.3386415755,2796766.7507395796,4287476.89302449,-269.3808107443228,-272.5242229839781,29.635894982570456,-15.254463960716631,35.789921141864,-60.50827817478081,-2.5112535795522604,1.5905690111642121,2.624416516578365,13.609834079910954,-0.003976730942714113,-2.1682435211042606,220,0.21293612479063673,113,80,0,22.739923634192788,0.04971935378828597,0,2979.61255166089,-163.81275579973135,-3.2578657442563745,-1776.2947492223484,11313.426061975377,0,0,0,0,0,270,594.6441531432235,0,0,-0.7159668384634337,-0.2683849880183405,-0.6444850536878809,0.32973866861598133,0.6836954855591503,-0.6510244952729488,0.6153567230802273,-0.678623593188767,-0.40100638664182325,384.3354779118207,2119709.4061054555,8.260340982961585,0.1999589012986163,4.500035852548215,1,0
27,812.279515338153,11341.07103012959,42.50389523080994,143.46357411010322,701.7544747954234,-3789801.9670551205,2796495.0528506623,4287507.869341454,-271.8676294743439,-270.84000065760097,32.34531709470747,-15.305095994176735,35.902724904276894,-64.57387550002878,-2.4609382639610207,1.7798819971225726,2.7958751689242467,13.741514204552624,-0.004316478976084781,-2.392866282036183,220,0.22350264037646672,113,80,0,21.14899915255422,0.04893614666429503,0,3258.0477810207226,-179.12053204323652,-3.5061874506617516,-1943.6762638413595,11341.07103012959,0,0,0,0,0,270,633.6014504091652,0,0,-0.7159945808486549,-0.2684387374233963,-0.6444318462381354,0.32968188436623064,0.6836729012210963,-0.6510769687653376,0.6153548694177127,-0.6786250867647482,-0.4010067035567455,385.11366302711934,2312168.6740940916,8.4044476905003,0.22051587989224178,4.504519565961471,1,0
28,805.3269047951217,11370.366100544505,42.503757539731104,143.46401059280137,768.4325231546536,-3790075.0556471725,2796225.1358864415,4287541.642282282,-274.29964715167404,-268.9602870650984,35.230640801419085,-15.27466227836413,35.82497307176494,-68.81138709277126,-2.401499663576228,1.9817135607972824,2.9763218950520223,13.876281588978799,-0.004661484592940468,-2.6351358138928376,220,0.23439244507763984,113,80,0,19.508664455608137,0.04802422370023194,0,3554.579202792399,-195.42319842667413,-3.7540189589829644,-2122.145768717093,11370.366100544505,0,0,0,0,0,270,672.5744527109352,0,0,-0.7160223208303136,-0.26849248669576764,-0.6443786314432642,0.3296250955925245,0.6836503109459717,-0.6511294408173347,0.6153530144789984,-0.6786265813622385,-0.4010070206869333,385.77341859821246,2517351.6399585465,8.546232760079235,0.24266319337287082,4.507031713262937,1,0
29,798.3742942520903,11401.352726145526,42.50362051456604,143.46444488357932,839.4366296594962,-3790350.5448970133,2795957.2017651545,4287578.392348027,-276.6672600269275,-266.8720547463998,38.30117376000388,-15.15626201755147,35.54046091235234,-73.22705866602817,-2.3319511793583327,2.1971048668741417,3.1664091962002248,14.014170996752917,-0.005010084204015719,-2.8966277343037117,220,0.24564162238515896,113,80,0,17.817716679843187,0.046991824618904374,0,3870.6272454631658,-212.79884708480265,-3.9999224405256384,-2312.5931230857605,11401.352726145526,0,0,0,0,0,270,711.3468543288858,0,0,-0.7160500379418234,-0.26854621426192643,-0.6443254410382232,0.3295683276342401,0.6836277314011809,-0.6511818811051523,0.6153511685077744,-0.6786280687275337,-0.4010073362810888,386.30615615955037,2736443.3664760003,8.685047415511889,0.26654020378267645,4.507468864870773,1,0
30,791.4216837090589,11434.071050263243,42.503484980767595,143.46487436090948,914.948208913207,-3790628.365156032,2795691.465967124,4287618.30969779,-278.9597861534816,-264.56118663774635,41.56694386518411,-14.942310006804675,35.03146762509933,-77.82745476959217,-2.251126570212368,2.42721885192626,3.366906654865976,14.155200396924876,-0.00540535700779099,-3.179159625259996,220,0.2572909998520715,113,80,0,16.074931431877072,0.04582093693476162,0,4207.847863871154,-231.33851888981965,-4.277916744154888,-2516.055863403128,11434.071050263243,0,0,0,0,0,270,749.6838955694076,0,0,-0.7160777099772687,-0.2685998967158351,-0.6442723094763217,0.32951160799794016,0.6836051806843021,-0.6512342567280951,0.6153493426244335,-0.6786295399006924,-0.40100764843809655,386.7027212061741,2970834.3904834962,8.820188135028056,0.29230753168858575,4.505725611439853,1,0
31,784.4690731660276,11468.559703013623,42.50335183514558,143.46529617718951,995.1554106511176,-3790908.4354911433,2795428.1587309595,4287661.594888749,-281.18809686311306,-262.03527346133524,45.02453797227883,-14.638141605456248,34.31053640773074,-82.61334420909762,-2.2899133100721167,2.539758215114187,3.4962285497525354,14.299305488270644,-0.005756254516956716,-3.279531489396015,220,0.26941269838323006,113,80,0,14.300713012930725,0.04454319196234308,0,4569.052477707496,-251.19677971206198,-4.515603645825559,-2572.6910279052963,11468.559703013623,0,0,0,0,0,270,787.3305789143003,0,0,-0.7161053128227548,-0.2686535086404966,-0.6442192741933255,0.32945496656833934,0.6835826784618946,-0.6512865319583359,0.615347548910759,-0.678630985147313,-0.4010079550925496,386.98377146215495,3222776.5326961656,8.949367787760705,0.3202124701975318,4.5016947356941515,1,0
32,777.5164626229962,11504.839051648321,42.50322127865173,143.4657096998846,1080.2145509384573,-3791190.8062460707,2795167.380834365,4287708.369977177,-283.5912853718488,-259.533092382386,48.52807438884484,-14.385554942674574,33.71171704151231,-87.52353583362756,-2.5164264020731775,2.465037803936358,3.5112762665054076,14.445820770253201,-0.006118172132270061,-3.0911947517235685,220,0.2823028590377919,113,80,0,12.722724942214594,0.04318044011950701,0,4965.19016717434,-272.9755866752457,-4.756979554001803,-2403.4548086388795,11504.839051648321,0,0,0,0,0,270,824.2300187979264,0,0,-0.7161328411237294,-0.2687070444181694,-0.644166343535664,0.32939840998721936,0.6835602291291661,-0.6513386988739219,0.6153457900741233,-0.6786324022863437,-0.40100825578174715,387.4744084250091,3500298.79017008,9.057009725066372,0.3510865683208134,4.495288674095148,1,0
33,770.5638520799648,11542.907446634037,42.50309263272154,143.46611709649366,1170.2403896246105,-3791475.6928610117,2794909.068750099,4287758.656902396,-286.21777786680894,-257.1011835723905,52.04989647876393,-14.212646414757053,33.301163871004036,-92.5477555202205,-2.731023784977329,2.404791181012384,3.5362395082227964,14.594676671722045,-0.00649064198827265,-2.923950514269631,220,0.29596932625624883,113,80,0,11.366792677599545,0.041758547558351546,0,5398.120422794814,-296.7771706102913,-5.001454092955011,-2253.0905715668,11542.907446634037,0,0,0,0,0,270,860.5758210177058,0,0,-0.7161603132258604,-0.26876052345162105,-0.6441134890640372,0.3293419155042814,0.6835378177675261,-0.6513907846857974,0.6153440569731765,-0.6786337986835159,-0.40100855206862246,388.2406813882183,3805065.0625278573,9.143966663977018,0.38514286623906335,4.4864452751505475,1,0
34,763.6112415369334,11582.760415281064,42.502965229641404,143.4665204994522,1265.3506574705243,-3791763.310160155,2794653.162012736,4287812.480496207,-289.0508360466333,-254.7201365257721,55.60297793668225,-14.10856728266296,33.05327596381662,-97.69336984099091,-2.9345540764633,2.358277754765636,3.5706992628130907,14.745975340626295,-0.006870366615996382,-2.776602169777086,220,0.31035575737629495,113,80,0,10.197001829188336,0.040300524340766385,0,5867.231111652303,-322.56787775240616,-5.246289181453044,-2120.244630117623,11582.760415281064,0,0,0,0,0,270,896.5584304806844,0,0,-0.7161877471722404,-0.2688139648237927,-0.6440606827901105,0.32928546073225634,0.6835154296930633,-0.6514428161564547,0.6153423406126839,-0.6786351815867047,-0.4010088454910739,389.2613838109206,4137079.7103912067,9.214819017308658,0.42242421301075694,4.47510382094559,1,0
35,756.6586309939021,11624.391904990258,42.50283847908019,143.46692179427416,1365.6694809263572,-3792053.8600333403,2794399.6157750436,4287869.876246215,-292.08017340995735,-252.37696219731066,59.196370446646874,-14.066288813558593,32.95144986357802,-102.96610879259035,-3.1217855315495626,2.330879952436721,3.6179959003845275,14.89979352617695,-0.007254799467035333,-2.657365593915114,220,0.32542613392100483,113,80,0,9.185861853460509,0.03882594559397212,0,6372.282596964889,-350.33453338140225,-5.489406632862216,-2010.718612342107,11624.391904990258,0,0,0,0,0,270,932.3462446491448,0,0,-0.716215158910967,-0.26886738540500277,-0.6440078999605641,0.3292290258714615,0.6834930519183393,-0.6514948169426084,0.6153406330398365,-0.6786365574037638,-0.40100913740873934,390.52422334752833,4496700.455623141,9.272912254816765,0.46300209768468975,4.461203449930574,1,0
36,749.7060204508707,11667.79401591047,42.50271186536189,143.4673226282175,1471.3273249128833,-3792347.531995555,2794148.4003365436,4287930.890033864,-295.2945387318661,-250.05760490182308,62.83981054617034,-14.078175301957735,32.97765128969316,-108.37205373741713,-3.3060967008422226,2.309149965626963,3.66987829279973,15.0562045564292,-0.007641783117712464,-2.545555399722822,220,0.34115443210542357,113,80,0,8.307738840171153,0.037351267397606976,0,6913.087118069136,-380.0668148156641,-5.729090810330144,-1908.4182085634213,11667.79401591047,0,0,0,0,0,270,968.0863385066091,0,0,-0.716242562369547,-0.26892079993102713,-0.643955118944451,0.32917259361972706,0.6834706730934228,-0.6515468077052375,0.6153389273075185,-0.6786379317321427,-0.40100942900928427,392.01595906745996,4884418.141408033,9.320963728256144,0.5069544654144477,4.444683506857198,1,0
37,742.7534099078393,11712.95613075991,42.502584915466905,143.46772451215207,1582.459459767677,-3792644.509183975,2793899.4951603045,4287995.574477636,-298.68818689224463,-247.75350699871396,66.53967278880378,-14.139856946589319,33.12153825186026,-113.91587379777997,-3.476101840957261,2.3046756679764826,3.7335002204857552,15.215267257653046,-0.008029780324450897,-2.458922744189744,220,0.3575268469108272,113,80,0,7.543854005619238,0.035890459020447435,0,7489.640499172605,-411.7644924790119,-5.964146716798014,-1826.3732529468732,11712.95613075991,0,0,0,0,0,270,1003.913578105773,0,0,-0.7162699703177232,-0.26897422191375986,-0.6439023198955997,0.32911614810358103,0.6834482828037162,-0.6515988073884984,0.615337217043232,-0.6786393097062232,-0.40100972138210217,393.7308233729985,5300956.125517457,9.360924754988536,0.5543757685745307,4.425484723991972,1,0
38,735.800799364808,11759.865345847886,42.50245723037218,143.46812872077058,1699.2075949478894,-3792944.9625716493,2793652.894800535,4288063.992604058,-302.2457441567843,-245.44628617641663,70.30840490472151,-14.241181747998994,33.35914791411144,-119.60491752008011,-3.638763613040216,2.310501237609617,3.804609633584411,15.377059051344073,-0.008417310512418119,-2.3867473114756432,220,0.3745302312573987,113,80,0,6.870602397692844,0.03445484491007037,0,8101.677863116431,-445.41300398905855,-6.19346380353924,-1756.170579665583,11759.865345847886,0,0,0,0,0,270,1039.9417391957172,0,0,-0.7162973935239277,-0.2690276627501989,-0.6438494860648661,0.32905967592666174,0.683425872259126,-0.6516508319690024,0.6153354968713145,-0.6786406956571482,-0.4010100154461411,395.6509080729248,5746964.896581007,9.394707560913371,0.6053445502825882,4.403548700883737,1,0
39,728.8481888217766,11808.505798599175,42.502328462919166,143.46853636307554,1821.7188407341018,-3793249.055130884,2793408.60477285,4288136.215333423,-305.96691515639765,-243.13274511139656,74.14913366181489,-14.38098304146439,33.68768616051449,-125.44254229771606,-3.8036983683496537,2.3169513063336877,3.877272292620635,15.541630767877717,-0.008803639490336579,-2.3141534514400535,220,0.3921659264200707,113,80,0,6.277616685972018,0.033053622834520666,0,8749.272198337492,-481.01636209470354,-6.416516697571447,-1686.6665517377457,11808.505798599175,0,0,0,0,0,270,1076.2697509652844,0,0,-0.7163248413524057,-0.2690811323527823,-0.6437966028748484,0.3290031654302363,0.6834034338084074,-0.6517028953409386,0.6153337621147854,-0.6786420933530593,-0.40101031200087894,397.7780523590049,6223454.035755102,9.423328286131364,0.6599678361995974,4.37881886838472,1,0
40,721.8955782787452,11858.857421734616,42.502198266311076,143.4689485463433,1950.1431297510862,-3793556.951413261,2793166.6318671154,4288212.315518659,-309.8517510179395,-240.8103229965386,78.06448093592671,-14.558399175507475,34.10507581749377,-131.43169125800006,-3.960305046774078,2.33340922179672,3.9567328480699198,15.70770175601185,-0.00918839356053791,-2.2561848327157303,220,0.41043748652588735,113,80,0,5.755950856125152,0.03169463787795462,0,9432.348595169165,-519.5369791483768,-6.633060682837095,-1628.7298545170565,11858.857421734616,0,0,0,0,0,270,1112.9964221209868,0,0,-0.7163523231506541,-0.26913464061425674,-0.6437436557653174,0.32894660497173644,0.6833809598078626,-0.6517550113728721,0.6153320081015037,-0.6786435065581334,-0.40101061184493814,400.1147116195255,6731457.045812694,9.447609264573751,0.7196843903478907,4.35124230259864,1,0
41,714.9429677357139,11910.896217748923,42.50206634103537,143.46936622672945,2084.6343851257116,-3793868.80812522,2792926.9924606015,4288292.372578285,-313.88667145710497,-238.4643605018184,82.0638441479675,-14.765001339352132,34.5914146691445,-137.57707877712602,-4.1100877103593385,2.3583899161537243,4.042088777466002,15.875302839890406,-0.009571060473722248,-2.210543688066066,220,0.4293405874124804,113,80,0,5.289879281955874,0.0303842541233082,0,10150.198740658638,-560.9600916944676,-6.842762379460904,-1580.4126646554037,11910.896217748923,0,0,0,0,0,270,1150.2070214533228,0,0,-0.7163798469860494,-0.26918819607344535,-0.6436906321572256,0.32888998449390927,0.6833584436527227,-0.6518071920346725,0.6153302307963102,-0.6786449385232699,-0.4010109156680236,402.6469523842241,7271693.446320715,9.468579914458772,0.7846221545070604,4.320769518210013,1,0
42,707.9903571926825,11964.593943893662,42.50193242979075,143.46979022545952,2225.350211877376,-3794184.775044182,2792689.7115401835,4288376.471872431,-318.07184879623827,-236.09259640805845,86.14958726357858,-15.00005885948238,35.14493841860337,-143.8814092793792,-4.258119459372059,2.3877498687757406,4.131178239359438,16.04537314177945,-0.009951718882989624,-2.1703971479885924,220,0.44888398774182686,113,80,0,4.8732928002068,0.029126877573680363,0,10902.426770471764,-604.6244819553569,-7.045721006649346,-1536.6202520544246,11964.593943893662,0,0,0,0,0,270,1187.974777574258,0,0,-0.7164074197832677,-0.26924180606037723,-0.6436375212406648,0.32883329535519257,0.6833358796659691,-0.65185944760123,0.6153284267326886,-0.678646392041159,-0.4010112240626088,405.3778070652615,7845251.200968473,9.486731252323006,0.8540010126025006,4.28735508226737,1,0
43,701.0377466496511,12019.917886170604,42.50179629602066,143.470221298088,2372.4517820337787,-3794504.9996269466,2792454.819023697,4288464.702866656,-322.4011324235226,-233.6862473040303,90.3282374146524,-15.258942209145047,35.75488123390587,-150.34929478355798,-4.400879463243026,2.4250122787386905,4.226271213694014,16.21794394832433,-0.010412155627942177,-2.1412187083524463,220,0.4690761790099118,113,80,0,4.4970402466120465,0.027899355402524036,0,11688.34825247403,-650.5270053469727,-7.299314119177845,-1501.0751383874772,12019.917886170604,0,0,0,0,0,270,1226.367027598178,0,0,-0.7164350479079432,-0.26929547731786857,-0.6435843130665045,0.32877652960079845,0.6833132626225704,-0.6519117875201775,0.6153265927235703,-0.6786478696792905,-0.4010115375733748,408.30251388088215,8453168.282672841,9.502633149251583,0.9279486139739612,4.250958137520538,1,0
44,694.0851361066198,12076.830860717659,42.50165773266039,143.47066010652458,2526.1043036691844,-3794829.625398092,2792222.351429268,4288557.1601654105,-326.874760167034,-231.24283414634957,94.60230745581288,-15.54093076020854,36.41934102263305,-156.98367125451622,-4.546830955927094,2.461801526912545,4.322039972179954,16.39304502722304,-0.010781520801844025,-2.109965361856619,220,0.48993006536573297,113,80,0,4.156610398231353,0.02672992532752207,0,12507.205405669738,-698.6619717956098,-7.483293333183059,-1464.4955953645056,12076.830860717659,0,0,0,0,0,270,1265.4427176595677,0,0,-0.7164627369307779,-0.26934921575154724,-0.6435309989143376,0.3287196802570656,0.6832905879426168,-0.6519642200617496,0.6153247259791788,-0.6786493736850123,-0.4010118566770676,411.4242989351216,9096597.18725786,9.516605299757448,1.0065940551827162,4.211542629596535,1,0
45,687.1325255635884,12135.29044412452,42.50151652796566,143.4711073252104,2686.475373694673,-3795158.798214754,2791992.3456448177,4288653.93959949,-331.49540858831904,-228.76236302374534,98.97285101346243,-15.846711468638887,37.13986158083927,-163.78685101447343,-4.693943418663549,2.500126231571275,4.419835375938889,16.57071274711571,-0.011150616466313323,-2.0797955376739354,220,0.5114606948964365,113,80,0,3.8492515567447456,0.02562485186787389,0,13358.056614286897,-749.0147438101519,-7.6619512540876595,-1429.0951604577715,12135.29044412452,0,0,0,0,0,270,1305.2619628858943,0,0,-0.7164904925325848,-0.26940302737027044,-0.643477569892026,0.32866274022149905,0.6832678509525512,-0.6520167536534454,0.6153228236466688,-0.6786509063564387,-0.4010121818611935,414.7493820237439,9776734.635598449,9.528865681944623,1.090058636353748,4.169078670123841,1,0
46,680.179915020557,12195.248977738906,42.50137247179639,143.47156362303286,2853.735305532813,-3795492.6652008207,2791764.839988116,4288755.138961958,-336.26330852264493,-226.24232980720868,103.4425015311903,-16.175480577831237,37.91451425356313,-170.76185819666972,-4.8422667545715665,2.5399906694953103,4.519682988467367,16.750999315630455,-0.011520326534997238,-2.05069063736857,220,0.5336835399778614,113,80,0,3.571188535885297,0.024584068940547467,0,14239.67528767029,-801.5556867239701,-7.835894723583602,-1394.8385834588075,12195.248977738906,0,0,0,0,0,270,1345.8843741666396,0,0,-0.7165183203461405,-0.26945691813036576,-0.6434240171768776,0.3286057024488973,0.6832450470142796,-0.652069396650787,0.6153208828947805,-0.6786524699742424,-0.4010125136095476,418.28095292305574,10494757.36245708,9.539653793484513,1.1784465683608796,4.123542845537165,1,0
47,673.2273044775256,12256.653493371763,42.501225356317484,143.47202966112093,3028.057216606103,-3795831.374650237,2791539.8743588342,4288860.858124409,-341.18072560302556,-223.68223152225056,108.0126870053586,-16.52762897689354,38.74418700709334,-177.91123655365982,-4.99292520822207,2.5803219149487004,4.620950777006397,16.933968207477662,-0.011891664922546674,-2.0209747090190167,220,0.5566160327720163,113,80,0,3.3200178869745107,0.023606923906367535,0,15150.614343932888,-856.24372294346,-8.005793521556575,-1360.575355770123,12256.653493371763,0,0,0,0,0,270,1387.3688569316462,0,0,-0.716546225937495,-0.2695108939160371,-0.6433703320447025,0.328548559974469,0.6832221715404724,-0.6521221573096747,0.6153189009232816,-0.6786540667940478,-0.40101285240059936,422.02460683696904,11251877.72516842,9.549134822436933,1.2718493698171804,4.074918661769486,1,0
48,666.2746939344943,12319.445542059002,42.50107496991465,143.47250611224044,3209.616788312793,-3796175.077198602,2791317.4891183027,4288971.198376021,-346.24985004928897,-221.08141446171152,112.68495929125345,-16.903475638274003,39.62960041883101,-185.23763492023153,-5.1456403928658965,2.621485314214744,4.723898111143671,17.11969913208204,-0.012265727502904333,-1.9911696288057508,220,0.5802768630737574,113,80,0,3.093487571212394,0.022692303889257363,0,16089.15732244045,-913.0232425804098,-8.172343837880621,-1326.66593500421,12319.445542059002,0,0,0,0,0,270,1429.7753964698454,0,0,-0.7165742149698324,-0.2695649607125846,-0.643316505614764,0.32849130570998814,0.6831992198606418,-0.6521750440294058,0.615316874880996,-0.6786556991124684,-0.4010131987215029,425.9857398200292,12049316.030112913,9.557454487233398,1.3703405680753276,4.023197162287151,1,0
49,659.3220833914629,12383.561205559294,42.500921099855,143.47299365234932,3398.5924807479605,-3796523.9253793377,2791097.725622819,4289086.262786289,-351.4708118165198,-218.43808917383754,117.46119720717887,-17.302431557697716,40.56933836246069,-192.74319547260657,-5.291466861824891,2.6663992719151057,4.8279109428541895,17.30236192434595,-0.012643568307733943,-1.9686874178408988,220,0.6046827390925414,113,80,0,2.8889237638289944,0.02183879454564902,0,17053.12115485738,-975.7318940064005,-8.336183798157938,-1297.9990898774197,12383.561205559294,0,0,0,0,0,270,1473.1642358461534,0,0,-0.7166022931319829,-0.2696191245310574,-0.6432625289608354,0.32843393253243214,0.6831761872795012,-0.6522280652467554,0.6153148019016489,-0.6786573692382262,-0.40101355306196884,430.1674827439013,12888159.331280187,9.564763127429735,1.479901733288484,3.9683773080708935,1,0
50,652.3694728484315,12448.928358691788,42.5007635583629,143.4734928776143,3595.1573520880193,-3796878.063145335,2790880.626989563,4289206.15281464,-356.82595807763227,-215.7530137514753,122.33365020772976,-17.720306822793276,41.55350516846839,-200.41187785791146,-5.418788779302507,2.703486308799387,4.916717008362635,17.459816275774326,-0.013024897624478449,-1.946921845205333,220,0.6297909232190597,113,80,0,2.7025333453372955,0.021046486438305843,0,18036.555545193078,-1058.6772188344273,-8.497045597186926,-1270.112377833696,12448.928358691788,0,0,0,0,0,270,1517.5884978546073,0,0,-0.7166304654371598,-0.2696733906676645,-0.6432083942029402,0.328376434156021,0.6831530696504506,-0.652281228396267,0.6153126794551663,-0.6786590792091209,-0.40101391585421564,434.5568423969546,13766830.291854111,9.571242354111407,1.6228184531871794,3.91047059600981,1,0
51,645.4168623054002,12515.462914565407,42.50060217703021,143.47400432225055,3799.4665835155174,-3797237.619665265,2790666.2317196787,4289330.959424339,-362.3077563266594,-213.0311072158512,127.29439675149317,-18.156879991349044,42.58155684595884,-208.23171922463183,-5.5428407854360096,2.7419943216942064,5.005676702291272,17.615467320809152,-0.01340986025733315,-1.9282629360077141,220,0.6555783028252233,113,80,0,2.5333365928653535,0.02031407433250397,0,19034.119044731146,-1146.1432683254477,-8.654949931241331,-1244.533413857897,12515.462914565407,0,0,0,0,0,270,1563.0958053316804,0,0,-0.7166587363738857,-0.2697277638633455,-0.6431540942731101,0.3283188049448983,0.683129863252659,-0.652334540134092,0.6153105052723699,-0.6786608308527042,-0.40101428748584267,439.1503459868796,14684301.835825104,9.57695775195037,1.7758185992096258,3.8495075516929296,1,0
52,638.4642517623688,12583.073703727017,42.50043679133565,143.4745285078325,4011.670574264601,-3797602.720439973,2790454.5768409586,4289460.770661013,-367.91486899994396,-210.2729759860692,132.34231820058963,-18.612011808627187,43.6531451938165,-216.20091591207327,-5.6692775973320355,2.776059316687504,5.091135667977274,17.76919327854793,-0.013799179774748538,-1.9037828498864107,220,0.6820529978379659,113,80,0,2.379868676164014,0.019638906909226626,0,20041.849909671568,-1238.079012717997,-8.810282989818818,-1215.497292770758,12583.073703727017,0,0,0,0,0,270,1609.7326443120444,0,0,-0.7166871103227272,-0.26978224874408285,-0.6430996222669119,0.3282610393949775,0.6831065644505174,-0.6523880069559371,0.6153082771364187,-0.678662625954308,-0.4010146683354803,443.9488308893155,15640726.965554755,9.581988140392214,1.9391516585313848,3.7855311234755598,1,0
53,631.5116412193374,12651.663655344313,42.50026723361587,143.47506596569605,4231.917643092573,-3797973.4904237506,2790245.697915624,4289595.672901557,-373.64328436962376,-207.47661872325514,137.47785813288013,-19.083998256154132,44.7642373139319,-224.3182691662446,-5.778850902572512,2.825134273084694,5.185022457657846,17.920923385526525,-0.014193494191433231,-1.90333432026116,220,0.7092232730680149,113,80,0,2.239788836590278,0.019018292949514626,0,21055.44433941269,-1334.3919159844513,-8.963356811466774,-1201.9777803772176,12651.663655344313,0,0,0,0,0,270,1657.5464007090966,0,0,-0.7167155917454962,-0.26983685002091184,-0.6430449711487486,0.3282031318984332,0.6830831695388782,-0.6524416354776722,0.6153059927881109,-0.6786644663333362,-0.40101505878897514,448.9499000424868,16636139.08144829,9.586439228086643,2.113012379958628,3.7185954959143186,1,0
54,624.5590306763061,12721.131427994906,42.500093423315505,143.4756169496553,4460.35848702956,-3798350.037222038,2790039.646018596,4289735.761262702,-379.4644515287234,-204.61515799318173,142.7167394556331,-19.55645620630176,45.87622606641356,-232.58917681238987,-5.863845360586081,2.897079836818188,5.292174593420745,18.07067913576878,-0.014592730468338644,-1.9389468880898546,220,0.7370940858332469,113,80,0,2.1018384080325307,0.018448965783258206,0,22070.048450474635,-1434.9255832966053,-9.114021596224429,-1210.986788958239,12721.131427994906,0,0,0,0,0,270,1706.5596243439018,0,0,-0.7167441827587431,-0.26989156992654917,-0.642990137532516,0.32814507976367213,0.6830596767291092,-0.6524954288373351,0.6153036511417713,-0.6786663528636935,-0.40101545903156655,454.1241026144908,17670276.501343057,9.590731307740043,2.2975019378757375,3.6487641040710166,1,0
55,617.6064201332747,12791.371875311965,42.49991539336713,143.47618137374516,4697.147227002308,-3798732.4470879966,2789836.491158397,4289881.1424706485,-385.36972773561433,-201.68347890532328,148.063178507587,-20.023613726262298,46.979832564185095,-241.01358433531578,-5.950512414054746,2.9635424692920376,5.397227100217433,18.218513673994554,-0.016854903630775908,-1.9690785535526203,220,0.7656760654453302,113,80,0,1.9636014568737081,0.017534201554295057,0,23080.802008582337,-1539.5008649670722,-10.409696693092556,-1216.1155564208395,12791.371875311965,0,0,0,0,0,270,1756.7641877255544,0,0,-0.7167728825501096,-0.26994640772587897,-0.6429351225409139,0.3280868838274881,0.6830360866283615,-0.6525493858887476,0.6153012526406678,-0.6786682851874742,-0.4010158689871489,459.4657305481499,18742995.378440507,9.594952215840602,2.492689218863463,3.5761094002413873,1,0
56,610.6538095902433,12862.274536113815,42.499733171490476,143.47675918337328,4942.435599111021,-3799120.8067308073,2789636.3004210447,4290031.921209417,-391.36421705161337,-198.68710473357748,153.5111709755014,-20.490464463549742,48.082490088298286,-249.5880573482597,-6.0386035752055225,3.0287532533228756,5.498374451587663,18.364526508212,-0.01693119467858395,-1.995925620836121,220,0.7949833216879243,113,80,0,1.827440963791285,0.016690731420351972,0,24082.75235146919,-1647.9064625531466,-10.339098531390809,-1218.8195840223484,12862.274536113815,0,0,0,0,0,270,1808.1545744189773,0,0,-0.7168016905321628,-0.27000136300812605,-0.6428799269101404,0.32802854456748054,0.683012399659569,-0.652603505859582,0.615298797657832,-0.6786702630033463,-0.40101628859161675,464.98193039096,19854182.229927145,9.59901818324354,2.6985936002903403,3.5007158398317806,1,0
57,603.701199047212,12933.715520046484,42.49954675273071,143.47735038105208,5196.34227712173,-3799515.1879982357,2789439.1240983577,4290188.177144564,-397.39112709806705,-195.67312551942754,158.99029868290356,-20.95916875399807,49.18850938294848,-258.2107242384475,-5.995568763857126,2.983742848749098,5.436512487174244,18.280066807250684,-0.017062496502580515,-1.9697714681821177,220,0.8247264043386967,113,80,0,1.6988916583662823,0.01598510016240551,0,25052.32667874788,-1898.0172698461045,-10.300649597345526,-1189.1533971905315,12933.715520046484,0,0,0,0,0,270,1860.7310573164941,0,0,-0.7168306067272675,-0.2700564357313048,-0.6428245505416862,0.3279700619545475,0.6829886157475319,-0.6526577887536471,0.6152962861260806,-0.6786722863646149,-0.40101671785609966,470.6225611061295,20988147.394891273,9.602739265577057,3.1439680306112354,3.4226940135527593,1,0
58,596.7485885041806,13005.52046472302,42.49935610221954,143.47795506748668,5458.809434631839,-3799915.5644507622,2789244.930267655,4290349.86824525,-403.3482481796593,-192.72676235701036,164.37434244306775,-21.433052644192543,50.30609878282458,-266.69838740364247,-5.9144883713588206,2.910474080298595,5.331282582852329,18.13236067167344,-0.01733933099748519,-1.9322233433350355,220,0.8543627489606476,113,80,0,1.5868579370403404,0.015383939687723763,0,25950.89543128604,-2185.0598276531755,-10.34722129835532,-1153.0515528100116,13005.52046472302,0,0,0,0,0,270,1914.502866674505,0,0,-0.7168596319786247,-0.27011162673813327,-0.6427689920495152,0.32791143492100316,0.6829647341444196,-0.6527122358000429,0.6152937175752075,-0.6786743556492477,-0.40101715686060024,476.2901832830554,22114938.513137545,9.605818283777412,3.6616087071613874,3.34224424439172,1,0
59,589.7959779611492,13077.493895105035,42.49916118787273,143.4785733366434,5729.686678988859,-3800321.854128922,2789053.646951071,4290516.890170206,-409.21515271251997,-189.85216160705812,169.65099014097308,-21.908413023722332,51.426541824730876,-275.0287818817229,-5.818732855077417,2.8369817454278934,5.220395505613867,17.970558980958778,-0.017899074595906228,-1.901672606704989,220,0.8838257048448461,113,80,0,1.4886853848876396,0.014877487281622232,0,26769.430895798752,-2478.5304864219406,-10.556802205890556,-1121.5988548334958,13077.493895105035,0,0,0,0,0,270,1969.478728764607,0,0,-0.7168887670663326,-0.2701669368172387,-0.6427132501395185,0.3278526624653732,0.682940754153351,-0.6527668481401442,0.6152910915725007,-0.6786764712049786,-0.40101760567870126,481.956785336835,23227787.146630213,9.608362528323044,4.202352303231891,3.2596120976287875,1,0
60,582.8433674181179,13149.44361812352,42.49896200200211,143.47920521073473,6008.8104950059205,-3800733.962285773,2788865.200142054,4290689.1317109885,-414.98431093087845,-187.0544931507609,174.81235555420136,-22.38489784328769,52.54958506689728,-283.1898505919489,-5.7176998493868,2.7589267689127324,5.102169834998355,17.798941513630158,-0.01802673833145718,-1.868570378236468,220,0.9130849500726718,113,80,0,1.4034089636405267,0.014412605851155641,0,27501.9092700069,-2775.448609841188,-10.506764872672779,-1089.0838515090911,13149.44361812352,0,0,0,0,0,270,2025.6608834221502,0,0,-0.7169180121483392,-0.2702223661346503,-0.6426573244722765,0.3277937443286234,0.6829166755864893,-0.6528216260089111,0.6152884080139126,-0.6786786331147378,-0.4010180643278008,487.60713836148113,24321772.214970544,9.61041719269437,4.761911630110647,3.1750492247584168,1,0
61,575.8907568750865,13221.1827588909,42.498758550118396,143.47985066798876,6296.0081252167,-3801151.785721092,2788679.514159167,4290866.476496129,-420.6438194747084,-184.32958532129027,179.85771578514743,-22.858224366052866,53.66485998488457,-291.1758496455252,-5.605111148749051,2.686641045058506,4.985518164887443,17.621877994416906,-0.018412912943756687,-1.8472689555350268,220,0.942122374968386,113,80,0,1.3279085147106608,0.014006448534040905,0,28143.88975532133,-3072.9061031257183,-10.60382637145557,-1063.825116954918,13221.1827588909,0,0,0,0,0,270,2083.0476854827634,0,0,-0.7169473670165412,-0.2702779144580594,-0.6426012152838269,0.32773468071808,0.6828924985558431,-0.6528765690930989,0.6152856669732095,-0.6786808413181854,-0.40101853279489824,493.22146832274115,25392690.972433127,9.612097430150241,5.33591842973831,3.088810195116457,1,0
62,568.9381463320551,13292.531787935479,42.498550859762744,143.48050961524703,6591.102420113049,-3801575.213794575,2788496.515191184,4291048.806992343,-426.1934190806777,-181.68048446018142,184.7836653412698,-23.32954416547463,54.774708423650225,-298.98299473839467,-5.491906714635265,2.613859302330975,4.8679570045833,17.44362960489887,-0.018695369223767244,-1.8256511934322521,220,0.9709342842770092,113,80,0,1.261898552002812,0.013681057527740704,0,28692.636381346478,-3368.1854952213566,-10.636508711163392,-1038.6826058402494,13292.531787935479,0,0,0,0,0,270,2141.63110368606,0,0,-0.7169768308637948,-0.27033358091471865,-0.6425449237480089,0.32767547259439767,0.6828682236645899,-0.6529316761876436,0.6152828688209574,-0.6786830955158623,-0.4010190110162604,498.792173032335,26437237.84472425,9.613419874954692,5.920125969643717,3.001149110975543,1,0
63,561.9855357890237,13363.319970713688,42.498338966641256,143.48118193277085,6893.915456267074,-3802004.1335967625,2788316.1305217724,4291236.005812612,-431.6263982016833,-179.0996231565155,189.59544640301152,-23.794358933777147,55.869098737110676,-306.61413582552314,-5.373458928585071,2.549249299452365,4.756880797283683,17.26826826796764,-0.01922520515522752,-1.8153153279079524,220,0.9995290599031355,113,80,0,1.2024705634682258,0.013389190799441645,0,29146.927975748993,-3658.802975991296,-10.804287219812698,-1020.1809571803764,13363.319970713688,0,0,0,0,0,270,2201.4007706085918,0,0,-0.7170064026604985,-0.27038936439321826,-0.6424884513879469,0.32761612119917344,0.6828438516987594,-0.6529869457558941,0.615280014037722,-0.6786853953196829,-0.4010194989093504,504.3059150318595,27452924.860720914,9.61448732416718,6.510493140814313,2.912316999384024,1,0
64,555.0329252459924,13433.400596682593,42.498122938676474,143.48186741022784,7204.335363859311,-3802438.4651111923,2788138.3208463285,4291428.002834996,-437.0586766761705,-176.50657732916326,194.42082781027878,-24.25374323814441,56.95175692774286,-314.25957353293677,-5.505174419425596,2.628609975729449,4.890523455066615,17.46998984700199,-0.019890724671810744,-1.8363994594014628,220,1.0285158838596178,113,80,0,1.143144025850593,0.013036724551505625,0,29540.518734835823,-3736.98102788329,-11.040007099856755,-1019.2621638717543,13433.400596682593,0,0,0,0,0,270,2262.337937342886,0,0,-0.7170360805804671,-0.2704452630104447,-0.6424318009415576,0.3275566287034286,0.6828193840979506,-0.6530423751124724,0.6152771035381098,-0.6786877399918954,-0.4010199963174498,509.87676646893345,28470643.19439699,9.61551790045952,6.732899721628312,2.8225341814147042,1,0
65,548.080314702961,13502.688798330875,42.49790273418814,143.4825661870665,7522.50406323839,-3802878.302881664,2787963.139171247,4291624.890401466,-442.6446271916118,-173.84704821681302,199.3753018002445,-24.72833747793814,58.07015049577632,-322.1127938186311,-5.671302959416401,2.687356692083898,5.016742136740906,17.685043281377357,-0.02027365314663232,-1.8189586682716783,220,1.058558204814671,113,80,0,1.0862914747613017,0.012699316414697282,0,29907.47258666442,-3809.8647111380883,-11.111590196784137,-996.9354393380203,13502.688798330875,0,0,0,0,0,270,2324.4548263042834,0,0,-0.7170658657466897,-0.27050127800501267,-0.6423749705418209,0.32749699359704815,0.6827948198833372,-0.6530979659479702,0.6152741367600669,-0.678690129984322,-0.4010205033361992,515.6622665303702,29525164.65303241,9.61643320669941,6.951289088357227,2.731919321861818,1,0
66,541.1277041599296,13571.113535624487,42.4976781658481,143.4832788528127,7848.631599841639,-3803323.8127162424,2787790.644751851,4291826.794928158,-448.40450611558026,-171.1324467451126,204.455072847389,-25.227424287467215,59.24539702270731,-330.1783154169623,-5.847904455431027,2.7435781854329315,5.144724279244425,17.907843132018915,-0.02072876879194574,-1.7938716855123849,220,1.0897143511499874,113,80,0,1.035553730194919,0.01242620691968714,0,30245.53127258103,-3880.6834951389287,-11.216911066449118,-970.7136667388212,13571.113535624487,0,0,0,0,0,270,2387.804004342981,0,0,-0.7170957631151491,-0.27055741458699273,-0.6423179523680652,0.32743720966100553,0.6827701549303611,-0.6531537256004787,0.6152711111792237,-0.678692567329548,-0.40102102039657517,521.6845716012285,30618131.040538125,9.617114703634932,7.1714744325712765,2.6405716310418414,1,0
67,534.1750936168983,13638.602993531511,42.497449011843415,143.48400610790662,8182.934169107117,-3803775.171603833,2787620.8936237074,4292033.844149389,-454.34409314551107,-168.36028036806073,209.66532119751216,-25.75133721188891,60.47883754009044,-338.46417713563307,-6.032553349545427,2.8010031270386477,5.276564057712157,18.13915987413992,-0.02078605705932901,-1.765973238972995,220,1.1220428810019634,113,80,0,0.9905618525241564,0.012177003112854157,0,30552.155436545883,-3949.1155696309365,-11.103393975592454,-943.338920253336,13638.602993531511,0,0,0,0,0,270,2452.4479188206274,0,0,-0.7171257785720774,-0.27061367895705485,-0.6422607371377451,0.32737726950502455,0.6827453843473636,-0.6532096627912091,0.6152680238065573,-0.6786950544343894,-0.4010215480089254,527.9519730947927,31751052.498103037,9.617576556261895,7.392923438065007,2.5485969352304925,1,0
68,527.2224830738669,13705.085163174774,42.49721504364105,143.48474867293186,8525.63632315211,-3804232.5629291683,2787453.944350762,4292246.170884207,-460.4698846118074,-165.52764865847553,215.01147304676454,-26.300781944778123,61.771904359219064,-346.97918848797593,-6.220288990712717,2.864873138163774,5.416599348176636,18.37982038114074,-0.021152477690526084,-1.743614535161031,220,1.1556079121267302,113,80,0,0.9509763536951288,0.01196476525728356,0,30824.80760534144,-4014.8306233780877,-11.152061811164367,-919.2727847512853,13705.085163174774,0,0,0,0,0,270,2518.450843127342,0,0,-0.7171559181743927,-0.2706700774897945,-0.6422033152975096,0.327317165527075,0.682720503098365,-0.6532657864915604,0.6152648715624558,-0.678697593778543,-0.4010220866990378,534.4734330596372,32925586.195775792,9.617831446342855,7.615059585415265,2.4561070106029637,1,0
